     2.11           OBSERVATION DATA    C (COMPASS)         RINEX VERSION / TYPE
BLANK OR G = GPS,  R = GLONASS,  E = GALILEO,  M = MIXED    COMMENT             
CHC Navigation      CHC Navigation      20-05-24 08:51      PGM / RUN BY / DATE 
1055568                                                     MARKER NAME         
1055568                                                     MARKER NUMBER       
CHC                 CHC                                     OBSERVER / AGENCY   
1055568             CHC I70             1.6.76.2            REC # / TYPE / VERS 
1055568             CHCI70                                  ANT # / TYPE        
 -2205310.8818  5184369.6508  2979982.5166                  APPROX POSITION XYZ 
        1.8358        0.0000        0.0000                  ANTENNA: DELTA H/E/N
     1     1     0                                          WAVELENGTH FACT L1/2
     5    C1    P2    L1    L6    S1                        # / TYPES OF OBSERV 
     5.000                                                  INTERVAL            
  2022     6     2     5    21   20.0000000     GPS         TIME OF FIRST OBS   
  2022     6     2     6    51   45.0000000     GPS         TIME OF LAST OBS    
     0                                                      RCV CLOCK OFFS APPL 
    18                                                      LEAP SECONDS        
    14                                                      # OF SATELLITES     
   C01  1086  1086  1086  1086  1086  1086                  PRN / # OF OBS      
   C02  1086  1086  1086  1086  1086  1086                  PRN / # OF OBS      
   C03  1086  1086  1086  1086  1086  1086                  PRN / # OF OBS      
   C04  1086  1086  1086  1086  1086  1086                  PRN / # OF OBS      
   C05   178   133   133   178   178   133                  PRN / # OF OBS      
   C07  1086  1086  1086  1086  1086  1086                  PRN / # OF OBS      
   C10  1086  1086  1086  1086  1086  1086                  PRN / # OF OBS      
   C11  1086  1086  1086  1086  1086  1086                  PRN / # OF OBS      
   C12  1086  1086  1086  1086  1086  1086                  PRN / # OF OBS      
   C13  1086  1086  1086  1086  1086  1086                  PRN / # OF OBS      
   C14  1086  1086  1086  1086  1086  1086                  PRN / # OF OBS      
   C21  1086     0     0  1086  1086     0                  PRN / # OF OBS      
   C23  1042     0     0  1042  1042     0                  PRN / # OF OBS      
   C25   943     0     0   943   943     0                  PRN / # OF OBS      
HUACE ANT REFERENCEPOINT                                    COMMENT             
                                                            END OF HEADER       
 22  6  2  5 21 20.0000000  0 14C01C02C03C04C05C07C10C11C12C13C14C21
                                C23C25
  37497424.086 6  37497427.801 6 195258961.50906         0.000          38.700  
  37500164.945 6  37500164.527 7 195273233.71706         0.000          38.500  
  36782067.328 7  36782067.609 7 191533877.63007         0.000          42.600  
  38587838.133 6  38587841.320 6 200937036.26906         0.000          38.200  
  39201365.484 5  39201368.258 5 204131795.40405         0.000          33.600  
  35838999.852 7  35838997.723 7 186623078.84407         0.000          43.600  
  35825595.188 7  35825595.297 7 186553270.86507         0.000          47.200  
  22605480.219 7  22605479.461 7 117712666.11707         0.000          46.800  
  23823116.070 6  23823118.410 7 124053221.33506         0.000          41.400  
  36829996.172 7  36830002.820 7 191783452.20307         0.000          46.800  
  25164571.898 7  25164578.809 7 131038517.64607         0.000          42.000  
  23538314.500 7         0.000   122570189.45207         0.000          44.000  
  24946958.398 6         0.000   129905372.96806         0.000          40.500  
  23774237.023 7         0.000   123798686.25007         0.000          45.600  
 22  6  2  5 21 25.0000000  0 14C01C02C03C04C05C07C10C11C12C13C14C21
                                C23C25
  37496670.570 6  37496673.168 6 195255033.61706         0.000          38.400  
  37499398.930 6  37499398.395 7 195269245.86206         0.000          38.100  
  36781292.609 7  36781292.723 7 191529842.08607         0.000          42.500  
  38587099.117 6  38587103.199 6 200933191.90106         0.000          38.200  
  39200594.516 5  39200596.926 5 204127778.57705         0.000          33.500  
  35838332.883 7  35838330.395 7 186619603.98007         0.000          44.700  
  35824588.953 7  35824589.207 7 186548031.49507         0.000          46.300  
  22604350.047 7  22604350.094 7 117706784.45307         0.000          47.500  
  23823465.531 6  23823467.656 7 124055040.76506         0.000          40.900  
  36829043.422 7  36829049.996 7 191778490.27507         0.000          46.800  
  25160811.367 6  25160818.254 7 131018937.09306         0.000          41.900  
  23537090.938 7         0.000   122563816.40407         0.000          44.100  
  24945569.781 6         0.000   129898143.90706         0.000          40.400  
  23775188.727 7         0.000   123803641.33107         0.000          45.300  
 22  6  2  5 21 30.0000000  0 13C01C02C03C04C07C10C11C12C13C14C21C23
                                C25
  37495916.508 6  37495919.496 6 195251108.44006         0.000          38.600  
  37498634.156 6  37498633.273 7 195265260.75506         0.000          38.200  
  36780518.305 7  36780518.191 7 191525809.31307         0.000          42.500  
  38586362.305 6  38586365.566 6 200929350.38706         0.000          38.400  
  35837666.727 7  35837664.172 7 186616134.66307         0.000          44.700  
  35823583.938 7  35823583.871 7 186542797.28907         0.000          46.800  
  22603221.305 7  22603221.426 7 117700906.45007         0.000          46.800  
  23823816.359 7  23823817.582 7 124056863.63607         0.000          42.300  
  36828091.711 7  36828097.922 7 191773534.43907         0.000          45.800  
  25157051.406 7  25157058.723 7 130999358.55107         0.000          42.200  
  23535869.938 7         0.000   122557458.94207         0.000          44.300  
  24944184.875 6         0.000   129890930.05806         0.000          40.400  
  23776142.281 7         0.000   123808607.90707         0.000          45.400  
 22  6  2  5 21 35.0000000  0 14C01C02C03C04C05C07C10C11C12C13C14C21
                                C23C25
  37495163.188 6  37495165.949 6 195247186.04206         0.000          38.700  
  37497868.563 6  37497868.543 7 195261278.38706         0.000          38.000  
  36779744.016 7  36779744.172 7 191521779.33207         0.000          42.500  
  38585625.063 6  38585628.297 6 200925511.60106         0.000          38.400  
  39199053.453 5  39199056.301 5 204119757.15805         0.000          33.200  
  35837001.797 7  35836998.984 7 186612670.91907         0.000          44.700  
  35822579.813 7  35822579.906 7 186537568.23407         0.000          46.700  
  22602093.359 7  22602093.250 7 117695032.19907         0.000          46.700  
  23824166.594 6  23824168.555 7 124058690.04306         0.000          41.700  
  36827141.117 7  36827147.535 7 191768584.65907         0.000          45.900  
  25153292.008 6  25153299.195 7 130979782.05106         0.000          41.900  
  23534651.773 7         0.000   122551117.01907         0.000          43.700  
  24942802.422 6         0.000   129883731.36206         0.000          39.900  
  23777098.297 7         0.000   123813585.99507         0.000          45.800  
 22  6  2  5 21 40.0000000  0 14C01C02C03C04C05C07C10C11C12C13C14C21
                                C23C25
  37494410.242 6  37494413.500 7 195243266.70306         0.000          38.600  
  37497104.891 6  37497104.352 7 195257299.01106         0.000          38.000  
  36778971.297 7  36778971.090 7 191517752.44007         0.000          42.800  
  38584887.867 6  38584891.730 6 200921675.92806         0.000          38.300  
  39198284.867 5  39198286.637 5 204115748.90505         0.000          33.000  
  35836337.398 7  35836334.793 7 186609213.02107         0.000          44.700  
  35821576.477 7  35821576.625 7 186532344.65507         0.000          45.800  
  22600965.625 7  22600966.113 7 117689162.01707         0.000          46.600  
  23824517.781 6  23824519.875 7 124060520.22806         0.000          41.400  
  36826191.523 7  36826198.273 7 191763641.30807         0.000          45.900  
  25149532.953 7  25149540.254 7 130960207.89307         0.000          42.300  
  23533436.898 7         0.000   122544791.00607         0.000          43.600  
  24941422.766 6         0.000   129876548.15206         0.000          39.900  
  23778056.422 7         0.000   123818575.84407         0.000          45.500  
 22  6  2  5 21 45.0000000  0 14C01C02C03C04C05C07C10C11C12C13C14C21
                                C23C25
  37493658.305 6  37493661.645 6 195239350.26206         0.000          38.400  
  37496341.219 6  37496340.770 7 195253322.49706         0.000          38.200  
  36778198.531 7  36778198.320 7 191513728.47107         0.000          42.600  
  38584152.336 6  38584155.723 6 200917843.12306         0.000          38.300  
  39197515.078 5  39197517.004 5 204111744.46705         0.000          32.600  
  35835674.914 7  35835672.047 7 186605760.81307         0.000          44.700  
  35820574.406 7  35820574.344 7 186527126.34107         0.000          46.700  
  22599839.156 7  22599839.645 7 117683295.71107         0.000          46.600  
  23824870.508 7  23824872.398 7 124062354.04007         0.000          42.200  
  36825243.383 7  36825249.977 7 191758704.10507         0.000          45.300  
  25145774.383 6  25145781.523 7 130940635.95306         0.000          41.700  
  23532224.742 7         0.000   122538480.66907         0.000          43.400  
  24940047.039 6         0.000   129869380.22506         0.000          40.500  
  23779016.953 7         0.000   123823577.31407         0.000          45.600  
 22  6  2  5 21 50.0000000  0 13C01C02C03C04C07C10C11C12C13C14C21C23
                                C25
  37492906.188 6  37492909.594 6 195235435.87806         0.000          38.400  
  37495577.750 6  37495577.730 7 195249348.10206         0.000          38.000  
  36777426.016 7  36777425.883 7 191509706.55407         0.000          42.800  
  38583416.531 6  38583420.098 6 200914012.37606         0.000          38.300  
  35835012.336 7  35835010.000 7 186602313.41207         0.000          45.000  
  35819573.359 7  35819573.277 7 186521912.48407         0.000          46.300  
  22598713.336 7  22598713.453 7 117677432.40507         0.000          46.400  
  23825223.141 6  23825225.262 7 124064190.65806         0.000          41.400  
  36824296.766 7  36824302.828 7 191753772.30607         0.000          46.000  
  25142015.305 6  25142023.219 7 130921065.33006         0.000          41.200  
  23531016.344 7         0.000   122532185.21107         0.000          43.900  
  24938672.758 6         0.000   129862226.74106         0.000          40.800  
  23779979.883 7         0.000   123828589.52907         0.000          46.100  
 22  6  2  5 21 55.0000000  0 14C01C02C03C04C05C07C10C11C12C13C14C21
                                C23C25
  37492155.227 6  37492158.809 7 195231524.80906         0.000          38.900  
  37494815.281 6  37494814.949 7 195245376.88106         0.000          38.400  
  36776654.336 7  36776654.230 7 191505687.95507         0.000          42.400  
  38582681.297 6  38582684.914 6 200910184.92106         0.000          38.600  
  39195979.086 5         0.000   204103744.00405         0.000          33.000  
  35834351.844 7  35834349.078 7 186598872.11207         0.000          43.900  
  35818573.102 7  35818572.875 7 186516704.30007         0.000          46.500  
  22597588.391 7  22597588.629 7 117671573.36307         0.000          46.800  
  23825576.531 6  23825578.922 7 124066031.31006         0.000          41.400  
  36823350.273 7  36823356.906 7 191748847.11307         0.000          45.700  
  25138258.086 6  25138265.777 7 130901497.32106         0.000          40.800  
  23529810.367 7         0.000   122525905.88407         0.000          44.200  
  24937302.031 6         0.000   129855088.95906         0.000          41.400  
  23780944.383 7         0.000   123833613.69907         0.000          45.400  
 22  6  2  5 22  0.0000000  0 14C01C02C03C04C05C07C10C11C12C13C14C21
                                C23C25
  37491405.047 6  37491408.094 7 195227616.23906         0.000          38.600  
  37494053.133 6  37494052.762 7 195241408.17506         0.000          38.400  
  36775883.109 7  36775882.930 7 191501671.90307         0.000          42.600  
  38581946.945 6  38581950.586 6 200906360.05206         0.000          38.400  
  39195211.797 5  39195213.824 5 204099746.65505         0.000          32.300  
  35833692.125 7  35833689.285 7 186595436.13007         0.000          44.900  
  35817574.094 7  35817573.777 7 186511501.06407         0.000          46.500  
  22596463.672 7  22596464.191 7 117665717.80907         0.000          46.800  
  23825930.813 6  23825932.676 7 124067875.17806         0.000          41.400  
  36822406.172 7  36822412.215 7 191743927.79807         0.000          46.400  
  25134500.438 6  25134508.074 7 130881931.16106         0.000          40.400  
  23528607.219 7         0.000   122519641.86307         0.000          44.700  
  24935933.977 6         0.000   129847966.08006         0.000          41.600  
  23781911.023 7         0.000   123838649.07807         0.000          45.600  
 22  6  2  5 22  5.0000000  0 14C01C02C03C04C05C07C10C11C12C13C14C21
                                C23C25
  37490654.492 6  37490658.055 7 195223710.77906         0.000          38.300  
  37493291.023 6  37493291.129 7 195237442.57106         0.000          37.800  
  36775112.555 7  36775112.488 7 191497658.97607         0.000          42.600  
  38581213.398 6  38581216.676 6 200902538.27406         0.000          38.900  
  39194445.414 5  39194446.574 5 204095752.79705         0.000          33.100  
  35833033.188 7  35833030.590 7 186592006.05507         0.000          45.100  
  35816575.727 7  35816575.547 7 186506303.34007         0.000          46.900  
  22595340.125 7  22595340.508 7 117659866.35207         0.000          46.700  
  23826286.148 7  23826287.207 7 124069722.90807         0.000          42.100  
  36821462.719 7  36821468.805 7 191739014.88807         0.000          46.000  
  25130742.578 6  25130751.199 7 130862367.46206         0.000          39.800  
  23527407.195 7         0.000   122513393.80607         0.000          44.900  
  24934569.594 7         0.000   129840858.72607         0.000          42.100  
  23782880.219 7         0.000   123843696.23207         0.000          45.500  
 22  6  2  5 22 10.0000000  0 14C01C02C03C04C05C07C10C11C12C13C14C21
                                C23C25
  37489904.609 6  37489908.766 7 195219808.20706         0.000          38.300  
  37492530.172 6  37492530.145 7 195233479.75906         0.000          38.200  
  36774342.438 7  36774342.281 7 191493648.97007         0.000          42.800  
  38580480.078 6  38580483.477 6 200898719.36606         0.000          38.700  
  39193677.289 5  39193680.148 5 204091762.10105         0.000          33.200  
  35832375.719 7  35832373.098 7 186588581.67607         0.000          45.300  
  35815578.852 7  35815578.289 7 186501110.92707         0.000          46.300  
  22594217.219 7  22594217.480 7 117654018.73407         0.000          46.600  
  23826641.992 7  23826642.863 7 124071574.27707         0.000          43.000  
  36820520.281 7  36820526.582 7 191734108.11907         0.000          45.500  
  25126986.289 6  25126994.699 7 130842805.94706         0.000          39.600  
  23526211.109 7         0.000   122507161.47007         0.000          45.300  
  24933207.555 7         0.000   129833766.67707         0.000          42.900  
  23783852.195 7         0.000   123848754.91407         0.000          45.300  
 22  6  2  5 22 15.0000000  0 14C01C02C03C04C05C07C10C11C12C13C14C21
                                C23C25
  37489156.125 6  37489159.574 7 195215907.63706         0.000          38.300  
  37491770.398 6  37491769.492 7 195229518.99106         0.000          38.200  
  36773572.422 7  36773572.875 7 191489640.97307         0.000          42.800  
  38579746.313 6  38579750.457 6 200894902.50606         0.000          38.700  
  39192913.594 5  39192914.402 5 204087772.35805         0.000          32.600  
  35831719.141 7  35831716.484 7 186585162.11007         0.000          44.600  
  35814582.109 7  35814582.051 7 186495922.93907         0.000          46.900  
  22593094.703 7  22593095.172 7 117648174.05307         0.000          46.700  
  23826997.883 7  23826998.738 7 124073428.39707         0.000          42.900  
  36819579.055 7  36819585.043 7 191729206.68507         0.000          45.400  
  25123229.133 6  25123238.238 7 130823245.79806         0.000          39.200  
  23525016.719 7         0.000   122500943.96707         0.000          45.400  
  24931848.219 7         0.000   129826689.01907         0.000          42.000  
  23784825.711 7         0.000   123853824.25607         0.000          45.900  
 22  6  2  5 22 20.0000000  0 14C01C02C03C04C05C07C10C11C12C13C14C21
                                C23C25
  37488407.539 6  37488411.320 7 195212010.79006         0.000          38.100  
  37491009.961 6  37491009.504 7 195225561.87106         0.000          38.200  
  36772803.625 7  36772803.684 7 191485636.73307         0.000          42.700  
  38579013.820 6  38579018.242 6 200891089.38706         0.000          38.400  
  39192147.492 5  39192149.469 5 204083787.37705         0.000          32.600  
  35831063.516 7  35831060.699 7 186581749.04107         0.000          45.300  
  35813587.289 7  35813586.734 7 186490741.11807         0.000          46.600  
  22591973.438 7  22591973.570 7 117642334.05807         0.000          46.800  
  23827354.258 7  23827355.809 7 124075287.00207         0.000          42.200  
  36818638.883 7  36818645.422 7 191724312.27307         0.000          45.900  
  25119473.727 6  25119482.668 7 130803688.76606         0.000          39.600  
  23523826.055 7         0.000   122494743.03507         0.000          44.800  
  24930491.625 7         0.000   129819627.49207         0.000          42.300  
  23785801.945 7         0.000   123858905.94307         0.000          46.000  
 22  6  2  5 22 25.0000000  0 14C01C02C03C04C05C07C10C11C12C13C14C21
                                C23C25
  37487659.898 6  37487663.648 7 195208117.14606         0.000          38.100  
  37490250.531 6  37490250.473 7 195221608.01106         0.000          38.100  
  36772035.227 7  36772035.516 7 191481635.73307         0.000          42.600  
  38578282.586 6  38578286.402 6 200887279.49306         0.000          38.600  
  39191382.172 5  39191384.230 5 204079806.60705         0.000          33.700  
  35830409.500 7  35830406.758 7 186578342.00707         0.000          45.500  
  35812593.125 7  35812592.918 7 186485564.87307         0.000          46.600  
  22590852.484 7  22590852.879 7 117636498.29407         0.000          47.200  
  23827712.141 7  23827713.539 7 124077149.54007         0.000          42.600  
  36817700.266 7  36817706.676 7 191719424.39307         0.000          45.900  
  25115718.492 6  25115727.758 7 130784134.31306         0.000          38.900  
  23522638.242 7         0.000   122488558.19607         0.000          45.300  
  24929138.984 6         0.000   129812581.61706         0.000          40.800  
  23786779.891 7         0.000   123863999.47107         0.000          45.600  
 22  6  2  5 22 30.0000000  0 14C01C02C03C04C05C07C10C11C12C13C14C21
                                C23C25
  37486912.898 6  37486916.508 7 195204226.29806         0.000          38.600  
  37489492.008 6  37489491.586 7 195217656.84906         0.000          38.100  
  36771267.688 7  36771267.699 7 191477637.50207         0.000          42.800  
  38577551.570 6  38577555.285 6 200883472.38606         0.000          37.800  
  39190617.203 5  39190620.285 5 204075827.54405         0.000          33.300  
  35829756.055 7  35829753.727 7 186574940.50907         0.000          45.800  
  35811600.063 7  35811599.867 7 186480393.84707         0.000          45.600  
  22589732.258 7  22589733.016 7 117630666.26307         0.000          46.600  
  23828070.875 7  23828071.965 7 124079015.61707         0.000          42.000  
  36816763.070 7  36816769.074 7 191714542.60707         0.000          46.000  
  25111963.727 6  25111972.895 7 130764581.99606         0.000          39.800  
  23521453.656 7         0.000   122482388.96907         0.000          45.100  
  24927788.336 6         0.000   129805550.90206         0.000          40.900  
  23787760.164 7         0.000   123869104.39707         0.000          45.900  
 22  6  2  5 22 35.0000000  0 14C01C02C03C04C05C07C10C11C12C13C14C21
                                C23C25
  37486165.914 6  37486169.594 7 195200337.87206         0.000          38.700  
  37488733.664 6  37488733.285 7 195213708.08606         0.000          38.300  
  36770499.898 7  36770500.363 7 191473641.72907         0.000          42.800  
  38576821.188 6  38576824.461 6 200879667.68606         0.000          38.500  
  39189853.977 5  39189856.223 5 204071850.85605         0.000          33.700  
  35829104.094 7  35829101.398 7 186571544.22307         0.000          45.400  
  35810607.641 7  35810607.602 7 186475227.61107         0.000          46.000  
  22588612.844 7  22588613.676 7 117624837.60307         0.000          45.800  
  23828429.352 7  23828430.727 7 124080884.85707         0.000          42.000  
  36815826.500 7  36815832.734 7 191709666.50807         0.000          46.200  
  25108209.297 6  25108218.270 7 130745031.46806         0.000          39.900  
  23520271.328 7         0.000   122476235.00507         0.000          43.900  
  24926440.875 6         0.000   129798535.03606         0.000          41.200  
  23788742.609 7         0.000   123874220.33907         0.000          45.400  
 22  6  2  5 22 40.0000000  0 14C01C02C03C04C05C07C10C11C12C13C14C21
                                C23C25
  37485419.766 6  37485423.086 6 195196450.39506         0.000          39.000  
  37487975.586 6  37487975.164 7 195209760.23906         0.000          38.000  
  36769733.023 7  36769733.219 7 191469646.93307         0.000          42.800  
  38576090.797 6  38576094.191 6 200875863.95306         0.000          38.800  
  39189090.742 5         0.000   204067875.66405         0.000          33.700  
  35828452.328 7  35828449.863 7 186568151.73907         0.000          45.200  
  35809616.516 7  35809616.137 7 186470064.79707         0.000          46.300  
  22587493.789 7  22587494.609 7 117619010.85807         0.000          46.000  
  23828788.594 6  23828789.695 7 124082755.82606         0.000          41.600  
  36814891.172 7  36814896.949 7 191704794.69507         0.000          46.300  
  25104455.477 6  25104464.129 7 130725481.35906         0.000          39.700  
  23519093.242 7         0.000   122470094.87707         0.000          45.400  
  24925096.477 6         0.000   129791532.51206         0.000          41.200  
  23789727.250 7         0.000   123879345.82907         0.000          45.900  
 22  6  2  5 22 45.0000000  0 14C01C02C03C04C05C07C10C11C12C13C14C21
                                C23C25
  37484673.813 6  37484677.285 7 195192566.26306         0.000          38.300  
  37487217.891 6  37487217.707 7 195205815.76006         0.000          38.300  
  36768966.492 7  36768966.508 7 191465655.49007         0.000          42.600  
  38575360.781 6  38575364.305 6 200872063.58906         0.000          37.500  
  39188328.930 5  39188329.398 5 204063903.19305         0.000          33.200  
  35827802.141 7  35827799.563 7 186564765.40307         0.000          45.200  
  35808625.938 7  35808625.770 7 186464907.67307         0.000          46.000  
  22586375.875 7  22586376.609 7 117613188.38507         0.000          46.500  
  23829148.305 7  23829150.008 7 124084630.90007         0.000          42.400  
  36813956.680 7  36813962.785 7 191699929.45307         0.000          46.100  
  25100700.938 6  25100710.492 7 130705933.99806         0.000          39.600  
  23517916.688 7         0.000   122463970.96107         0.000          45.500  
  24923754.867 6         0.000   129784545.72806         0.000          41.800  
  23790713.500 7         0.000   123884483.20607         0.000          45.800  
 22  6  2  5 22 50.0000000  0 14C01C02C03C04C05C07C10C11C12C13C14C21
                                C23C25
  37483928.531 6  37483931.789 7 195188684.20406         0.000          38.500  
  37486461.266 6  37486460.551 7 195201873.30106         0.000          38.400  
  36768200.227 7  36768200.652 7 191461666.16707         0.000          42.600  
  38574631.320 6  38574635.055 6 200868265.31206         0.000          37.900  
  39187565.523 5  39187567.941 5 204059934.38705         0.000          33.000  
  35827152.484 7  35827150.277 7 186561383.94307         0.000          46.000  
  35807636.633 7  35807636.348 7 186459755.12107         0.000          45.500  
  22585258.414 7  22585259.031 7 117607369.02507         0.000          46.200  
  23829510.094 7  23829510.555 7 124086508.80307         0.000          42.300  
  36813023.539 7  36813029.289 7 191695069.60107         0.000          46.400  
  25096947.422 6  25096957.070 7 130686388.15506         0.000          39.900  
  23516743.648 7         0.000   122457861.97707         0.000          45.300  
  24922416.148 7         0.000   129777573.48507         0.000          42.400  
  23791702.781 7         0.000   123889631.30607         0.000          44.900  
 22  6  2  5 22 55.0000000  0 14C01C02C03C04C05C07C10C11C12C13C14C21
                                C23C25
  37483183.070 6  37483186.719 7 195184804.67506         0.000          38.100  
  37485703.898 6  37485703.840 7 195197933.35906         0.000          38.300  
  36767434.594 7  36767434.883 7 191457679.41507         0.000          42.500  
  38573902.672 6  38573906.137 6 200864469.61806         0.000          38.600  
  39186803.797 5  39186806.039 5 204055967.61205         0.000          33.800  
  35826504.742 7  35826501.949 7 186558007.85507         0.000          45.500  
  35806648.164 7  35806647.797 7 186454607.51707         0.000          46.500  
  22584141.484 7  22584142.160 7 117601553.13307         0.000          46.500  
  23829871.055 7  23829871.828 7 124088390.00407         0.000          42.400  
  36812091.289 7  36812096.945 7 191690215.61207         0.000          46.300  
  25093194.672 6  25093204.164 7 130666844.29406         0.000          40.000  
  23515573.133 7         0.000   122451768.45907         0.000          44.700  
  24921080.438 7         0.000   129770616.17607         0.000          43.200  
  23792693.180 7         0.000   123894790.48207         0.000          44.600  
 22  6  2  5 23  0.0000000  0 14C01C02C03C04C05C07C10C11C12C13C14C21
                                C23C25
  37482438.508 6  37482442.313 6 195180927.44806         0.000          38.600  
  37484948.023 6  37484947.660 7 195193995.65106         0.000          38.200  
  36766669.727 7  36766669.969 7 191453694.93807         0.000          42.700  
  38573173.727 6  38573177.730 6 200860676.16806         0.000          37.900  
  39186043.172 5  39186044.277 5 204052002.00205         0.000          32.500  
  35825856.781 7  35825854.461 7 186554636.80107         0.000          45.400  
  35805660.281 7  35805660.160 7 186449464.61607         0.000          46.200  
  22583025.469 7  22583025.914 7 117595740.46107         0.000          46.600  
  23830233.305 7  23830233.645 7 124090274.23907         0.000          42.400  
  36811160.344 7  36811165.938 7 191685367.19607         0.000          46.200  
  25089441.258 6  25089451.477 7 130647302.16406         0.000          40.200  
  23514405.898 7         0.000   122445690.08107         0.000          45.100  
  24919747.609 7         0.000   129763673.55407         0.000          43.000  
  23793686.078 7         0.000   123899960.50507         0.000          45.000  
 22  6  2  5 23  5.0000000  0 14C01C02C03C04C05C07C10C11C12C13C14C21
                                C23C25
  37481694.617 6  37481698.117 7 195177052.71506         0.000          38.500  
  37484192.086 6  37484191.883 7 195190060.39806         0.000          37.900  
  36765904.469 7  36765905.266 7 191449713.00807         0.000          42.700  
  38572446.148 6  38572449.957 6 200856885.25106         0.000          38.100  
  39185281.484 5  39185283.035 5 204048038.92405         0.000          33.500  
  35825211.039 7  35825208.078 7 186551271.09107         0.000          45.900  
  35804673.844 7  35804673.703 7 186444326.60807         0.000          46.300  
  22581910.023 7  22581910.316 7 117589931.26607         0.000          46.800  
  23830595.531 7  23830596.109 7 124092161.72907         0.000          43.100  
  36810230.125 7  36810235.805 7 191680524.60407         0.000          46.600  
  25085688.773 6  25085698.988 7 130627761.98806         0.000          40.400  
  23513241.539 7         0.000   122439627.08607         0.000          45.000  
  24918416.852 7         0.000   129756745.83907         0.000          43.300  
  23794680.859 7         0.000   123905141.55407         0.000          45.200  
 22  6  2  5 23 10.0000000  0 14C01C02C03C04C05C07C10C11C12C13C14C21
                                C23C25
  37480950.922 6  37480954.586 7 195173180.57306         0.000          38.700  
  37483437.086 6  37483436.742 7 195186127.74906         0.000          37.800  
  36765140.750 7  36765140.934 7 191445733.68407         0.000          42.700  
  38571718.758 6  38571722.313 6 200853096.91206         0.000          37.600  
  39184520.883 5  39184522.816 5 204044079.41305         0.000          32.300  
  35824565.344 7  35824563.008 7 186547910.73907         0.000          45.600  
  35803688.094 7  35803687.848 7 186439193.67407         0.000          45.400  
  22580794.797 7  22580795.469 7 117584125.60707         0.000          47.100  
  23830958.633 7  23830959.406 7 124094052.58007         0.000          42.500  
  36809301.320 7  36809307.059 7 191675687.82607         0.000          46.600  
  25081936.211 6  25081946.570 7 130608223.81806         0.000          39.800  
  23512079.828 7         0.000   122433579.53407         0.000          45.100  
  24917089.586 6         0.000   129749833.12706         0.000          41.800  
  23795679.031 7         0.000   123910333.70807         0.000          46.300  
 22  6  2  5 23 15.0000000  0 14C01C02C03C04C05C07C10C11C12C13C14C21
                                C23C25
  37480207.797 6  37480211.324 7 195169311.03206         0.000          38.500  
  37482682.172 6  37482682.316 7 195182197.67306         0.000          38.300  
  36764377.250 7  36764377.078 7 191441756.96707         0.000          42.900  
  38570991.320 6  38570995.379 6 200849311.19506         0.000          38.200  
  39183761.258 5  39183762.594 5 204040122.42705         0.000          33.000  
  35823921.195 7  35823918.453 7 186544555.83707         0.000          45.700  
  35802703.125 7  35802703.004 7 186434065.74507         0.000          45.600  
  22579680.922 7  22579681.383 7 117578323.52307         0.000          46.600  
  23831322.656 7  23831323.184 7 124095946.75707         0.000          43.000  
  36808373.836 7  36808379.352 7 191670856.94907         0.000          46.700  
  25078185.469 6  25078194.793 7 130588687.75706         0.000          40.200  
  23510921.953 7         0.000   122427547.50007         0.000          46.100  
  24915764.625 7         0.000   129742935.42407         0.000          42.400  
  23796677.313 7         0.000   123915536.99307         0.000          45.500  
 22  6  2  5 23 20.0000000  0 14C01C02C03C04C05C07C10C11C12C13C14C21
                                C23C25
  37479465.109 6  37479468.719 7 195165443.35706         0.000          38.600  
  37481928.172 6  37481927.672 7 195178269.41306         0.000          37.700  
  36763613.711 7  36763613.852 7 191437782.12307         0.000          42.900  
  38570265.109 6  38570268.629 6 200845527.37206         0.000          37.900  
  39183001.648 5  39183002.594 5 204036166.77905         0.000          33.200  
  35823278.000 7  35823275.133 7 186541205.59107         0.000          45.400  
  35801719.102 7  35801719.215 7 186428942.12407         0.000          46.600  
  22578567.102 7  22578567.297 8 117572524.24807         0.000          47.600  
  23831686.727 7  23831687.379 7 124097843.61607         0.000          42.700  
  36807446.906 7  36807452.523 7 191666031.26807         0.000          45.900  
  25074433.781 6  25074443.215 7 130569153.12206         0.000          40.800  
  23509766.320 7         0.000   122421530.23507         0.000          45.700  
  24914442.398 7         0.000   129736051.97707         0.000          42.100  
  23797678.438 7         0.000   123920750.67207         0.000          45.900  
 22  6  2  5 23 25.0000000  0 14C01C02C03C04C05C07C10C11C12C13C14C21
                                C23C25
  37478722.805 6  37478726.348 7 195161577.75606         0.000          38.900  
  37481174.281 6  37481173.500 7 195174343.22406         0.000          38.300  
  36762850.516 7  36762850.926 7 191433809.38207         0.000          42.700  
  38569538.734 6  38569542.551 6 200841745.59706         0.000          38.000  
  39182241.672 5  39182243.371 5 204032213.21705         0.000          33.700  
  35822634.883 7  35822632.828 7 186537860.21507         0.000          45.400  
  35800736.383 7  35800736.160 7 186423823.00307         0.000          46.600  
  22577453.703 7  22577454.430 7 117566728.00207         0.000          47.200  
  23832052.063 7  23832052.047 7 124099743.28507         0.000          43.000  
  36806521.508 7  36806526.785 7 191661210.87607         0.000          46.300  
  25070682.516 6  25070691.773 7 130549619.98706         0.000          40.900  
  23508613.250 7         0.000   122415527.92007         0.000          46.000  
  24913123.102 7         0.000   129729183.03107         0.000          42.000  
  23798682.219 7         0.000   123925974.88207         0.000          45.700  
 22  6  2  5 23 30.0000000  0 14C01C02C03C04C05C07C10C11C12C13C14C21
                                C23C25
  37477980.797 6  37477984.543 7 195157715.10506         0.000          38.300  
  37480420.508 6  37480420.270 7 195170419.93706         0.000          37.900  
  36762087.930 7  36762088.594 7 191429839.65107         0.000          42.900  
  38568812.578 6  38568816.711 6 200837966.83106         0.000          38.300  
  39181481.406 5  39181484.352 5 204028262.13305         0.000          32.800  
  35821993.789 7  35821991.465 7 186534520.71307         0.000          45.300  
  35799754.281 7  35799754.055 7 186418709.30207         0.000          46.300  
  22576341.805 7  22576342.027 7 117560935.68607         0.000          46.700  
  23832417.961 7  23832417.910 7 124101646.73907         0.000          43.500  
  36805596.703 7  36805602.273 7 191656396.80307         0.000          46.400  
  25066931.414 6  25066941.109 7 130530089.35406         0.000          40.400  
  23507463.859 7         0.000   122409541.49807         0.000          45.500  
  24911806.813 7         0.000   129722329.50407         0.000          42.800  
  23799687.227 7         0.000   123931210.58807         0.000          45.800  
 22  6  2  5 23 35.0000000  0 14C01C02C03C04C05C07C10C11C12C13C14C21
                                C23C25
  37477239.539 6  37477243.309 7 195153854.95006         0.000          38.100  
  37479667.469 6  37479667.230 7 195166499.10406         0.000          38.200  
  36761326.734 7  36761326.805 7 191425872.39607         0.000          43.100  
  38568087.750 6  38568091.938 6 200834190.52506         0.000          38.900  
  39180725.070 5  39180725.496 5 204024313.44105         0.000          33.300  
  35821353.469 7  35821351.332 7 186531186.43407         0.000          45.300  
  35798773.391 7  35798772.965 7 186413600.52107         0.000          46.000  
  22575229.891 7  22575230.121 7 117555146.78807         0.000          46.600  
  23832783.820 7  23832783.832 7 124103553.38107         0.000          43.800  
  36804673.477 7  36804678.809 7 191651588.45107         0.000          47.000  
  25063181.453 6  25063190.719 7 130510560.67406         0.000          39.900  
  23506317.406 7         0.000   122403570.43807         0.000          45.000  
  24910493.367 6         0.000   129715490.83806         0.000          41.800  
  23800695.133 7         0.000   123936457.22107         0.000          46.100  
 22  6  2  5 23 40.0000000  0 14C01C02C03C04C05C07C10C11C12C13C14C21
                                C23C25
  37476498.656 6  37476502.438 6 195149997.12406         0.000          38.300  
  37478915.594 6  37478914.914 7 195162580.56606         0.000          38.400  
  36760565.063 7  36760565.402 7 191421907.50807         0.000          42.900  
  38567362.836 6  38567366.863 6 200830416.55106         0.000          38.400  
  39179966.867 5  39179968.043 5 204020367.01405         0.000          32.200  
  35820714.336 7  35820712.363 7 186527857.32907         0.000          45.500  
  35797792.867 7  35797792.836 7 186408496.51007         0.000          46.500  
  22574118.961 7  22574119.164 7 117549361.18607         0.000          47.700  
  23833150.469 7  23833150.684 7 124105463.14107         0.000          43.900  
  36803751.500 7  36803756.430 7 191646785.74707         0.000          46.600  
  25059431.953 6  25059441.336 7 130491033.86406         0.000          39.800  
  23505173.633 7         0.000   122397614.66807         0.000          46.500  
  24909183.148 7         0.000   129708666.90507         0.000          42.300  
  23801704.992 7         0.000   123941714.67507         0.000          46.800  
 22  6  2  5 23 45.0000000  0 14C01C02C03C04C05C07C10C11C12C13C14C21
                                C23C25
  37475758.102 6  37475762.270 7 195146141.47906         0.000          38.300  
  37478162.922 6  37478162.813 7 195158664.19006         0.000          38.300  
  36759804.266 7  36759804.211 7 191417944.79907         0.000          43.000  
  38566638.430 6  38566642.625 6 200826644.80506         0.000          37.900  
  39179209.445 5  39179210.496 5 204016422.83305         0.000          33.100  
  35820075.602 7  35820073.797 7 186524533.22007         0.000          45.800  
  35796813.641 7  35796813.406 7 186403397.13707         0.000          46.100  
  22573008.461 7  22573008.875 7 117543578.72807         0.000          47.600  
  23833517.211 7  23833517.863 7 124107375.85207         0.000          43.300  
  36802829.922 7  36802835.465 7 191641988.51007         0.000          46.700  
  25055681.797 6  25055691.465 7 130471508.81206         0.000          40.900  
  23504032.828 7         0.000   122391673.95407         0.000          45.300  
  24907875.859 7         0.000   129701857.54107         0.000          42.600  
  23802716.539 7         0.000   123946982.77007         0.000          46.900  
 22  6  2  5 23 50.0000000  0 13C01C02C03C04C07C10C11C12C13C14C21C23
                                C25
  37475018.078 6  37475022.063 7 195142287.73906         0.000          38.400  
  37477411.391 6  37477410.965 7 195154749.64706         0.000          38.200  
  36759043.492 7  36759043.750 7 191413984.02607         0.000          42.900  
  38565915.047 6  38565918.715 6 200822874.92806         0.000          38.300  
  35819438.281 7  35819436.426 7 186521213.83907         0.000          45.000  
  35795835.188 7  35795835.148 7 186398302.06907         0.000          46.000  
  22571898.594 8  22571898.938 7 117537799.09508         0.000          48.100  
  23833885.656 7  23833885.922 7 124109291.29707         0.000          43.300  
  36801909.719 7  36801915.016 7 191637196.42807         0.000          46.500  
  25051933.000 6  25051942.004 7 130451985.17606         0.000          40.400  
  23502895.367 7         0.000   122385748.08607         0.000          46.300  
  24906571.031 7         0.000   129695062.56207         0.000          42.000  
  23803729.859 7         0.000   123952261.20807         0.000          47.000  
 22  6  2  5 23 55.0000000  0 14C01C02C03C04C05C07C10C11C12C13C14C21
                                C23C25
  37474279.281 6  37474282.344 7 195138436.21206         0.000          38.500  
  37476659.859 6  37476659.602 7 195150837.38506         0.000          38.300  
  36758283.125 7  36758283.500 7 191410025.50507         0.000          42.700  
  38565191.727 6  38565194.922 6 200819107.33106         0.000          38.400  
  39177696.328 5  39177697.191 5 204008540.38705         0.000          32.400  
  35818802.047 7  35818799.789 7 186517899.55807         0.000          45.400  
  35794857.820 7  35794857.871 7 186393211.70707         0.000          46.300  
  22570789.109 7  22570789.656 8 117532022.70707         0.000          47.200  
  23834253.453 7  23834254.227 7 124111209.72607         0.000          43.200  
  36800990.156 7  36800995.902 7 191632409.80207         0.000          47.100  
  25048183.648 6  25048192.938 7 130432463.34706         0.000          40.900  
  23501759.852 7         0.000   122379837.37207         0.000          45.800  
  24905268.758 6         0.000   129688282.23606         0.000          41.400  
  23804745.859 7         0.000   123957550.32807         0.000          46.500  
 22  6  2  5 24  0.0000000  0 14C01C02C03C04C05C07C10C11C12C13C14C21
                                C23C25
  37473539.508 6  37473543.105 7 195134586.82806         0.000          38.400  
  37475908.617 6  37475908.730 7 195146927.18006         0.000          38.400  
  36757523.523 7  36757523.914 7 191406069.13607         0.000          42.600  
  38564468.359 6  38564472.035 6 200815341.85806         0.000          38.700  
  39176938.992 5  39176940.563 5 204004602.37205         0.000          33.400  
  35818166.680 7  35818164.352 7 186514590.19607         0.000          45.300  
  35793881.234 7  35793881.027 7 186388125.96507         0.000          46.600  
  22569680.023 7  22569681.004 8 117526249.39907         0.000          47.500  
  23834622.852 7  23834623.227 7 124113131.08207         0.000          43.200  
  36800072.461 7  36800077.824 7 191627628.63007         0.000          46.300  
  25044434.930 6  25044444.184 7 130412943.21606         0.000          39.700  
  23500627.648 7         0.000   122373941.70907         0.000          46.200  
  24903969.625 7         0.000   129681516.41407         0.000          42.700  
  23805763.695 7         0.000   123962850.00107         0.000          46.400  
 22  6  2  5 24  5.0000000  0 14C01C02C03C04C05C07C10C11C12C13C14C21
                                C23C25
  37472800.945 6  37472804.371 7 195130740.70406         0.000          38.700  
  37475158.438 6  37475158.789 7 195143020.19806         0.000          38.200  
  36756764.758 7  36756764.656 7 191402116.05307         0.000          42.500  
  38563746.195 6  38563749.367 6 200811579.65506         0.000          38.700  
  39176183.648 5  39176184.984 5 204000667.59205         0.000          32.900  
  35817532.211 7  35817529.809 7 186511286.95307         0.000          44.500  
  35792905.211 7  35792905.523 7 186383045.89607         0.000          46.300  
  22568572.078 7  22568573.176 7 117520480.27007         0.000          46.600  
  23834992.313 7  23834993.098 7 124115056.46307         0.000          43.000  
  36799155.641 7  36799160.766 7 191622854.03207         0.000          47.100  
  25040687.203 6  25040696.457 7 130393425.95306         0.000          40.200  
  23499498.609 7         0.000   122368062.25107         0.000          45.700  
  24902673.469 7         0.000   129674766.27307         0.000          43.000  
  23806783.547 7         0.000   123968161.34607         0.000          46.400  
 22  6  2  5 24 10.0000000  0 14C01C02C03C04C05C07C10C11C12C13C14C21
                                C23C25
  37472062.117 6  37472066.352 7 195126896.09806         0.000          38.300  
  37474408.773 6  37474408.664 7 195139114.75306         0.000          38.200  
  36756005.773 7  36756005.973 7 191398164.50107         0.000          42.600  
  38563023.305 6  38563027.473 6 200807818.98806         0.000          38.600  
  39175427.586 5  39175429.379 5 203996734.28305         0.000          32.900  
  35816898.898 7  35816896.117 7 186507988.03107         0.000          44.500  
  35791930.281 7  35791930.648 7 186377969.82007         0.000          46.300  
  22567464.406 7  22567465.680 8 117514713.66207         0.000          45.400  
  23835362.055 7  23835363.313 7 124116984.16007         0.000          42.100  
  36798239.508 7  36798244.605 7 191618084.18607         0.000          46.300  
  25036939.047 6  25036948.469 7 130373909.78306         0.000          39.800  
  23498372.164 7         0.000   122362197.27007         0.000          45.100  
  24901380.023 7         0.000   129668030.09007         0.000          42.900  
  23807805.703 7         0.000   123973482.64107         0.000          46.600  
 22  6  2  5 24 15.0000000  0 14C01C02C03C04C05C07C10C11C12C13C14C21
                                C23C25
  37471324.242 6  37471328.324 7 195123053.52706         0.000          38.400  
  37473658.938 6  37473658.945 7 195135211.26006         0.000          37.900  
  36755246.859 7  36755247.172 7 191394215.02107         0.000          42.600  
  38562302.219 6  38562305.648 6 200804060.40706         0.000          38.400  
  39174673.055 5  39174675.488 5 203992803.01505         0.000          32.800  
  35816265.938 7  35816263.656 7 186504693.98507         0.000          45.500  
  35790956.438 7  35790956.797 7 186372898.24807         0.000          45.800  
  22566357.813 7  22566358.938 7 117508950.00807         0.000          46.900  
  23835732.656 6  23835733.980 7 124118914.66706         0.000          41.300  
  36797324.508 7  36797329.898 7 191613319.70307         0.000          46.600  
  25033191.977 6  25033201.027 7 130354395.29006         0.000          40.000  
  23497248.797 7         0.000   122356347.28507         0.000          44.800  
  24900089.445 7         0.000   129661308.39807         0.000          43.200  
  23808829.203 7         0.000   123978814.35807         0.000          46.300  
 22  6  2  5 24 20.0000000  0 14C01C02C03C04C05C07C10C11C12C13C14C21
                                C23C25
  37470587.023 6  37470590.777 6 195119213.06506         0.000          38.100  
  37472910.055 6  37472909.500 7 195131309.89706         0.000          38.000  
  36754488.781 7  36754489.203 7 191390267.65507         0.000          42.600  
  38561580.375 6  38561584.273 6 200800303.87506         0.000          37.700  
  39173918.695 5  39173920.543 5 203988873.85705         0.000          31.600  
  35815634.688 7  35815632.156 7 186501404.86807         0.000          45.600  
  35789983.602 7  35789983.770 7 186367831.18807         0.000          45.800  
  22565251.320 7  22565252.691 7 117503189.40607         0.000          46.300  
  23836103.672 7  23836105.285 7 124120848.05307         0.000          42.300  
  36796410.680 7  36796415.723 7 191608560.55307         0.000          46.600  
  25029444.367 6  25029453.738 7 130334882.47506         0.000          40.000  
  23496127.828 7         0.000   122350512.30407         0.000          45.400  
  24898801.656 7         0.000   129654601.18307         0.000          43.600  
  23809855.273 7         0.000   123984156.56707         0.000          46.300  
 22  6  2  5 24 25.0000000  0 14C01C02C03C04C05C07C10C11C12C13C14C21
                                C23C25
  37469849.828 6  37469853.680 7 195115374.71806         0.000          38.200  
  37472160.891 6  37472160.867 7 195127410.60906         0.000          37.900  
  36753731.609 7  36753731.875 7 191386322.42607         0.000          42.600  
  38560859.219 6  38560863.148 6 200796549.50206         0.000          38.300  
  39173164.711 5         0.000   203984947.88405         0.000          33.400  
  35815003.688 7  35815001.414 7 186498120.70107         0.000          44.900  
  35789011.164 7  35789011.676 7 186362768.72907         0.000          46.000  
  22564145.961 7  22564146.836 7 117497431.88107         0.000          46.300  
  23836475.578 7  23836477.035 7 124122784.39607         0.000          42.500  
  36795497.820 7  36795502.762 7 191603806.84707         0.000          46.700  
  25025697.922 6  25025706.891 7 130315371.41106         0.000          40.400  
  23495010.289 7         0.000   122344692.43207         0.000          45.500  
  24897517.148 7         0.000   129647908.52107         0.000          44.700  
  23810883.180 7         0.000   123989509.27107         0.000          45.300  
 22  6  2  5 24 30.0000000  0 14C01C02C03C04C05C07C10C11C12C13C14C21
                                C23C25
  37469113.094 6  37469116.914 7 195111538.07306         0.000          38.500  
  37471412.219 6  37471412.387 7 195123512.97406         0.000          38.000  
  36752974.328 7  36752974.461 7 191382378.89507         0.000          42.600  
  38560138.734 6  38560142.777 6 200792796.82206         0.000          38.500  
  39172410.758 5  39172411.883 5 203981022.34305         0.000          33.000  
  35814374.242 7  35814371.586 7 186494841.05007         0.000          45.600  
  35788039.727 7  35788040.156 7 186357710.38907         0.000          46.000  
  22563040.969 7  22563041.480 7 117491676.97407         0.000          46.700  
  23836848.313 6  23836849.355 7 124124723.19906         0.000          41.700  
  36794585.539 7  36794590.852 7 191599058.05007         0.000          47.500  
  25021951.539 6  25021960.559 7 130295861.69706         0.000          40.400  
  23493895.070 7         0.000   122338887.18107         0.000          45.000  
  24896234.398 7         0.000   129641229.99207         0.000          44.300  
  23811913.023 7         0.000   123994872.03507         0.000          45.500  
 22  6  2  5 24 35.0000000  0 14C01C02C03C04C05C07C10C11C12C13C14C21
                                C23C25
  37468377.133 6  37468380.586 7 195107704.81206         0.000          38.700  
  37470664.695 6  37470664.543 7 195119618.71906         0.000          38.100  
  36752217.625 7  36752217.703 7 191378438.80807         0.000          42.800  
  38559418.789 6  38559422.723 6 200789047.55406         0.000          38.600  
  39171657.820 5  39171658.980 5 203977100.30005         0.000          33.100  
  35813745.664 7  35813742.977 7 186491567.65707         0.000          46.300  
  35787069.711 7  35787069.742 7 186352657.89107         0.000          46.500  
  22561936.375 7  22561937.125 7 117485926.43907         0.000          46.400  
  23837221.250 7  23837222.305 7 124126666.18607         0.000          42.100  
  36793675.414 7  36793680.270 7 191594315.90707         0.000          47.000  
  25018204.891 6  25018214.629 7 130276355.05306         0.000          39.900  
  23492783.609 7         0.000   122333098.29607         0.000          45.300  
  24894955.148 7         0.000   129634567.24107         0.000          44.600  
  23812945.477 7         0.000   124000246.52307         0.000          45.700  
 22  6  2  5 24 40.0000000  0 14C01C02C03C04C05C07C10C11C12C13C14C21
                                C23C25
  37467641.359 6  37467644.781 7 195103873.49506         0.000          38.600  
  37469917.086 6  37469917.121 7 195115726.33306         0.000          38.100  
  36751460.992 7  36751461.434 7 191374500.64907         0.000          42.900  
  38558699.352 6  38558703.016 6 200785300.20006         0.000          38.400  
  39170905.742 5  39170906.234 5 203973181.13805         0.000          33.000  
  35813118.039 7  35813115.406 7 186488298.99607         0.000          46.000  
  35786100.305 7  35786100.430 7 186347609.81107         0.000          45.900  
  22560832.805 7  22560833.055 7 117480178.76507         0.000          46.400  
  23837594.828 6  23837596.309 7 124128611.91306         0.000          41.700  
  36792765.727 7  36792770.574 7 191589578.96207         0.000          47.300  
  25014458.859 6  25014469.227 7 130256849.95806         0.000          39.500  
  23491674.633 7         0.000   122327324.29307         0.000          45.000  
  24893678.227 7         0.000   129627918.82807         0.000          44.300  
  23813979.813 7         0.000   124005631.28507         0.000          46.000  
 22  6  2  5 24 45.0000000  0 14C01C02C03C04C05C07C10C11C12C13C14C21
                                C23C25
  37466906.008 6  37466909.773 7 195100044.41406         0.000          38.500  
  37469170.055 6  37469170.117 7 195111836.23106         0.000          38.300  
  36750705.438 7  36750705.707 7 191370564.79807         0.000          42.800  
  38557979.906 6  38557983.852 6 200781555.18706         0.000          38.400  
  39170151.914 5  39170154.059 5 203969262.23305         0.000          33.400  
  35812491.117 7  35812488.410 7 186485035.47507         0.000          45.600  
  35785131.531 7  35785131.828 7 186342566.49207         0.000          45.800  
  22559729.539 7  22559730.059 7 117474434.39307         0.000          45.900  
  23837968.953 6  23837970.395 7 124130560.71906         0.000          41.300  
  36791857.070 7  36791861.891 7 191584847.55307         0.000          47.900  
  25010713.602 6  25010723.832 7 130237346.85306         0.000          40.000  
  23490568.672 7         0.000   122321565.54607         0.000          44.900  
  24892404.648 7         0.000   129621285.13307         0.000          44.100  
  23815016.016 7         0.000   124011026.69507         0.000          46.300  
 22  6  2  5 24 50.0000000  0 14C01C02C03C04C05C07C10C11C12C13C14C21
                                C23C25
  37466171.094 6  37466174.543 7 195096217.17606         0.000          38.600  
  37468423.508 6  37468423.277 7 195107947.85206         0.000          38.100  
  36749949.766 7  36749950.113 7 191366630.76507         0.000          42.600  
  38557260.609 6  38557264.902 6 200777811.93106         0.000          38.500  
  39169400.164 5  39169402.086 5 203965346.14405         0.000          32.400  
  35811865.453 7  35811862.625 7 186481776.59607         0.000          45.800  
  35784164.320 7  35784164.332 7 186337527.45307         0.000          46.300  
  22558626.750 7  22558627.313 7 117468692.70007         0.000          46.500  
  23838343.477 7  23838344.816 7 124132512.11207         0.000          42.000  
  36790949.617 8  36790954.574 7 191580121.23208         0.000          48.100  
  25006968.414 6  25006978.961 7 130217845.21906         0.000          39.700  
  23489465.719 7         0.000   122315821.56207         0.000          44.200  
  24891133.086 7         0.000   129614665.65807         0.000          44.500  
  23816054.148 7         0.000   124016432.20407         0.000          46.700  
 22  6  2  5 24 55.0000000  0 14C01C02C03C04C05C07C10C11C12C13C14C21
                                C23C25
  37465435.945 6  37465439.961 7 195092391.60506         0.000          38.400  
  37467676.586 6  37467676.973 7 195104061.16206         0.000          37.900  
  36749194.719 7  36749194.867 7 191362698.46107         0.000          42.600  
  38556542.078 6  38556546.652 6 200774070.42606         0.000          38.000  
  39168648.313 5  39168650.461 5 203961431.67405         0.000          33.400  
  35811240.734 7  35811237.488 7 186478522.28807         0.000          45.400  
  35783197.422 7  35783197.543 7 186332492.59507         0.000          45.600  
  22557524.852 7  22557525.020 7 117462953.69707         0.000          46.800  
  23838719.398 6  23838720.184 7 124134466.02106         0.000          41.400  
  36790042.719 7  36790047.809 7 191575399.84907         0.000          47.200  
  25003223.484 6  25003234.168 7 130198345.00006         0.000          38.700  
  23488365.594 7         0.000   122310092.26207         0.000          43.900  
  24889863.984 7         0.000   129608060.30307         0.000          43.600  
  23817094.344 7         0.000   124021847.74407         0.000          46.500  
 22  6  2  5 25  0.0000000  0 14C01C02C03C04C05C07C10C11C12C13C14C21
                                C23C25
  37464702.273 6  37464705.816 7 195088568.19806         0.000          38.300  
  37466931.336 6  37466930.867 7 195100176.63606         0.000          38.100  
  36748440.156 7  36748440.207 7 191358768.32007         0.000          42.600  
  38555824.563 6  38555828.098 6 200770331.06706         0.000          38.300  
  39167898.125 5  39167898.523 5 203957519.37105         0.000          33.100  
  35810616.531 7  35810613.426 7 186475272.94907         0.000          45.800  
  35782231.445 7  35782231.422 7 186327462.38107         0.000          46.000  
  22556423.180 7  22556423.703 7 117457217.76407         0.000          46.800  
  23839094.570 6  23839096.031 7 124136422.93306         0.000          41.600  
  36789136.758 7  36789142.012 7 191570683.92007         0.000          46.600  
  24999478.953 6  24999489.563 7 130178846.60506         0.000          38.300  
  23487268.109 7         0.000   122304378.11007         0.000          43.200  
  24888598.484 7         0.000   129601469.52707         0.000          43.600  
  23818135.797 7         0.000   124027273.74207         0.000          46.000  
 22  6  2  5 25  5.0000000  0 14C01C02C03C04C05C07C10C11C12C13C14C21
                                C23C25
  37463968.203 6  37463972.105 7 195084747.10706         0.000          38.400  
  37466185.648 6  37466185.426 7 195096294.35906         0.000          38.200  
  36747685.570 7  36747686.055 7 191354840.50607         0.000          42.600  
  38555106.625 6  38555110.840 6 200766594.00306         0.000          38.400  
  39167146.359 5  39167147.434 5 203953608.33705         0.000          32.000  
  35809994.063 7  35809990.527 7 186472028.75507         0.000          46.300  
  35781266.047 7  35781266.484 7 186322436.90907         0.000          46.300  
  22555322.586 7  22555322.789 7 117451485.11407         0.000          46.500  
  23839471.430 7  23839472.109 7 124138382.88007         0.000          42.600  
  36788232.430 7  36788237.559 7 191565973.57507         0.000          47.300  
  24995734.891 6  24995745.512 7 130159350.22306         0.000          38.000  
  23486174.063 7         0.000   122298679.23807         0.000          43.100  
  24887335.336 7         0.000   129594893.47407         0.000          42.700  
  23819180.242 7         0.000   124032710.33107         0.000          46.700  
 22  6  2  5 25 10.0000000  0 14C01C02C03C04C05C07C10C11C12C13C14C21
                                C23C25
  37463235.016 6  37463238.664 7 195080928.25706         0.000          38.400  
  37465440.688 6  37465440.074 7 195092414.26806         0.000          38.300  
  36746931.875 7  36746932.105 7 191350914.95507         0.000          42.500  
  38554389.234 6  38554393.422 6 200762859.18206         0.000          38.100  
  39166395.695 5         0.000   203949693.48405         0.000          33.500  
  35809371.633 7  35809368.426 7 186468789.63207         0.000          45.800  
  35780301.703 7  35780302.313 7 186317416.16607         0.000          45.800  
  22554222.742 7  22554222.500 7 117445755.61007         0.000          46.400  
  23839848.461 7  23839849.402 7 124140345.87107         0.000          43.000  
  36787328.969 7  36787333.953 7 191561268.64707         0.000          47.900  
  24991991.375 6  24992001.629 7 130139855.77806         0.000          38.900  
  23485082.633 7         0.000   122292995.59007         0.000          43.900  
  24886075.547 7         0.000   129588332.06607         0.000          42.700  
  23820226.297 7         0.000   124038157.43707         0.000          46.400  
 22  6  2  5 25 15.0000000  0 13C01C02C03C04C07C10C11C12C13C14C21C23
                                C25
  37462501.484 6  37462505.570 7 195077110.48506         0.000          38.300  
  37464695.273 6  37464695.180 7 195088535.28606         0.000          38.200  
  36746178.016 7  36746178.449 7 191346990.54207         0.000          42.600  
  38553672.594 6  38553676.426 6 200759125.50006         0.000          38.600  
  35808750.406 7  35808747.289 7 186465554.50107         0.000          45.100  
  35779338.406 7  35779338.711 7 186312399.02407         0.000          45.700  
  22553122.563 7  22553122.934 7 117440028.19307         0.000          46.600  
  23840225.672 7  23840226.805 7 124142310.82907         0.000          43.500  
  36786426.047 7  36786431.316 7 191556568.08707         0.000          46.700  
  24988247.578 6  24988258.289 7 130120362.22906         0.000          38.300  
  23483993.703 7         0.000   122287326.06607         0.000          44.000  
  24884818.422 7         0.000   129581784.19207         0.000          42.300  
  23821274.367 7         0.000   124043613.94007         0.000          47.000  
 22  6  2  5 25 20.0000000  0 14C01C02C03C04C05C07C10C11C12C13C14C21
                                C23C25
  37461769.211 6  37461772.801 7 195073295.40106         0.000          38.300  
  37463951.375 6  37463950.961 7 195084658.93206         0.000          38.300  
  36745424.961 7  36745425.391 7 191343068.82007         0.000          42.800  
  38552956.094 6  38552960.188 6 200755394.50106         0.000          38.600  
  39164895.898 5  39164898.500 5 203941886.65705         0.000          32.500  
  35808130.023 7  35808127.352 7 186462324.86607         0.000          44.600  
  35778376.000 7  35778376.336 7 186307387.06107         0.000          45.900  
  22552023.227 7  22552023.539 7 117434304.39907         0.000          46.900  
  23840604.195 7  23840604.508 7 124144279.27007         0.000          42.500  
  36785524.594 7  36785529.766 7 191551873.43807         0.000          46.700  
  24984505.406 6  24984515.215 7 130100871.11506         0.000          38.800  
  23482907.336 7         0.000   122281672.17507         0.000          43.600  
  24883564.047 7         0.000   129575251.44107         0.000          43.200  
  23822324.164 7         0.000   124049081.38207         0.000          46.200  
 22  6  2  5 25 25.0000000  0 14C01C02C03C04C05C07C10C11C12C13C14C21
                                C23C25
  37461036.438 6  37461040.727 7 195069482.12506         0.000          38.500  
  37463206.750 6  37463206.957 7 195080784.36906         0.000          38.300  
  36744671.969 7  36744672.445 7 191339148.92407         0.000          42.700  
  38552240.086 6  38552243.977 6 200751665.35606         0.000          38.400  
  39164147.453 5  39164148.438 5 203937984.33805         0.000          32.500  
  35807510.438 7  35807507.750 7 186459099.92407         0.000          44.800  
  35777414.539 7  35777414.684 7 186302379.36307         0.000          45.800  
  22550924.594 7  22550924.891 7 117428583.39107         0.000          46.400  
  23840982.531 7  23840983.398 7 124146250.31807         0.000          42.900  
  36784624.078 7  36784629.309 7 191547183.86407         0.000          47.000  
  24980762.602 6  24980772.285 7 130081381.54206         0.000          39.900  
  23481824.555 7         0.000   122276033.12407         0.000          43.200  
  24882312.461 7         0.000   129568732.91707         0.000          43.900  
  23823375.898 7         0.000   124054558.89707         0.000          46.800  
 22  6  2  5 25 30.0000000  0 14C01C02C03C04C05C07C10C11C12C13C14C21
                                C23C25
  37460305.313 6  37460308.949 7 195065671.32506         0.000          38.300  
  37462463.430 6  37462463.168 7 195076912.23406         0.000          38.300  
  36743920.102 7  36743920.254 7 191335231.49907         0.000          42.700  
  38551524.820 6  38551528.191 6 200747938.61806         0.000          38.500  
  39163398.500 5  39163400.652 5 203934091.52405         0.000          31.900  
  35806892.156 7  35806889.535 7 186455880.26907         0.000          45.900  
  35776453.797 7  35776454.043 7 186297376.63207         0.000          46.400  
  22549825.945 7  22549826.734 7 117422865.77807         0.000          46.200  
  23841361.531 7  23841362.301 7 124148224.65207         0.000          42.300  
  36783724.547 7  36783729.832 7 191542500.01507         0.000          46.600  
  24977020.523 6  24977029.914 7 130061894.20506         0.000          40.400  
  23480744.555 7         0.000   122270409.54107         0.000          44.100  
  24881063.695 7         0.000   129562229.26207         0.000          44.900  
  23824429.766 7         0.000   124060047.09607         0.000          46.400  
 22  6  2  5 25 35.0000000  0 14C01C02C03C04C05C07C10C11C12C13C14C21
                                C23C25
  37459573.695 6  37459577.207 7 195061862.10406         0.000          38.600  
  37461719.977 6  37461720.004 7 195073041.64806         0.000          38.100  
  36743167.805 7  36743168.328 7 191331315.68807         0.000          42.600  
  38550809.242 6  38550812.570 6 200744213.47606         0.000          38.600  
  39162648.992 5  39162651.613 5 203930193.21305         0.000          32.600  
  35806274.961 7  35806272.031 7 186452665.05407         0.000          46.100  
  35775493.758 7  35775493.883 7 186292377.92307         0.000          46.800  
  22548728.961 7  22548729.266 7 117417150.68007         0.000          46.100  
  23841741.328 7  23841742.199 7 124150201.37507         0.000          42.400  
  36782826.141 7  36782831.152 7 191537820.99007         0.000          47.200  
  24973278.578 6  24973287.766 7 130042408.23506         0.000          40.700  
  23479667.734 7         0.000   122264800.52407         0.000          44.000  
  24879817.289 7         0.000   129555739.60807         0.000          44.100  
  23825485.594 7         0.000   124065545.10707         0.000          46.600  
 22  6  2  5 25 40.0000000  0 14C01C02C03C04C05C07C10C11C12C13C14C21
                                C23C25
  37458842.148 6  37458846.043 7 195058054.35706         0.000          38.400  
  37460976.938 6  37460976.906 7 195069172.54606         0.000          38.100  
  36742416.383 7  36742416.426 7 191327401.37007         0.000          42.500  
  38550093.984 6  38550097.648 6 200740489.88206         0.000          38.400  
  39161899.906 5  39161902.082 5 203926296.37905         0.000          33.700  
  35805658.563 7  35805655.566 7 186449454.14207         0.000          46.200  
  35774534.586 7  35774534.820 7 186287383.26807         0.000          46.000  
  22547631.500 7  22547632.438 7 117411438.02707         0.000          46.200  
  23842121.328 7  23842122.461 7 124152180.43007         0.000          43.000  
  36781928.375 7  36781933.781 7 191533146.68907         0.000          47.500  
  24969537.086 6  24969546.008 7 130022923.54906         0.000          39.900  
  23478593.109 7         0.000   122259206.00707         0.000          44.400  
  24878573.391 7         0.000   129549263.90207         0.000          44.300  
  23826543.227 7         0.000   124071052.86407         0.000          46.700  
 22  6  2  5 25 45.0000000  0 14C01C02C03C04C05C07C10C11C12C13C14C21
                                C23C25
  37458111.438 6  37458115.359 7 195054248.89406         0.000          38.500  
  37460234.227 6  37460234.414 7 195065305.64906         0.000          37.800  
  36741664.852 7  36741665.172 7 191323489.38107         0.000          42.700  
  38549379.297 6  38549383.285 6 200736768.58306         0.000          38.700  
  39161153.375 5  39161154.313 5 203922401.79005         0.000          32.900  
  35805043.016 7  35805039.809 7 186446248.40407         0.000          46.700  
  35773576.273 7  35773576.563 7 186282393.31007         0.000          46.000  
  22546534.820 7  22546535.922 7 117405728.59107         0.000          46.100  
  23842501.766 7  23842503.184 7 124154162.59107         0.000          43.000  
  36781031.352 7  36781036.941 7 191528477.92807         0.000          46.400  
  24965796.141 6  24965804.434 7 130003440.93206         0.000          40.400  
  23477522.063 7         0.000   122253626.77707         0.000          45.500  
  24877332.836 7         0.000   129542802.86107         0.000          43.700  
  23827603.188 7         0.000   124076571.05207         0.000          46.700  
 22  6  2  5 25 50.0000000  0 14C01C02C03C04C05C07C10C11C12C13C14C21
                                C23C25
  37457381.109 6  37457384.910 7 195050445.76206         0.000          38.400  
  37459492.039 6  37459492.285 7 195061441.11506         0.000          37.900  
  36740914.281 7  36740914.676 7 191319579.73707         0.000          42.600  
  38548665.219 6  38548668.969 6 200733049.57906         0.000          38.800  
  39160404.609 5  39160407.777 5 203918516.50105         0.000          33.500  
  35804428.164 7  35804424.930 7 186443047.85907         0.000          46.000  
  35772619.000 7  35772619.141 7 186277408.17607         0.000          46.300  
  22545439.125 7  22545439.938 7 117400022.42507         0.000          46.000  
  23842883.766 7  23842884.516 7 124156147.92207         0.000          43.200  
  36780135.781 7  36780141.480 7 191523814.79307         0.000          45.500  
  24962055.109 6  24962063.672 7 129983960.47906         0.000          40.500  
  23476453.039 7         0.000   122248062.93307         0.000          45.100  
  24876095.125 7         0.000   129536356.60507         0.000          44.300  
  23828665.023 7         0.000   124082099.80407         0.000          46.600  
 22  6  2  5 25 55.0000000  0 14C01C02C03C04C05C07C10C11C12C13C14C21
                                C23C25
  37456651.648 6  37456655.066 7 195046644.26706         0.000          38.600  
  37458750.570 6  37458750.469 7 195057578.16706         0.000          38.300  
  36740163.469 7  36740164.094 7 191315671.75507         0.000          42.700  
  38547951.117 6  38547955.219 6 200729332.22206         0.000          38.800  
  39159657.867 5  39159660.676 5 203914625.88605         0.000          32.500  
  35803814.305 7  35803811.148 7 186439851.84907         0.000          46.000  
  35771662.227 7  35771662.563 7 186272427.15407         0.000          46.800  
  22544344.445 7  22544344.598 7 117394318.85707         0.000          46.400  
  23843265.273 7  23843266.281 7 124158135.66707         0.000          42.800  
  36779241.414 7  36779247.035 7 191519156.47707         0.000          45.600  
  24958314.313 6  24958322.734 7 129964481.51106         0.000          41.100  
  23475387.367 7         0.000   122242513.74107         0.000          44.300  
  24874859.727 7         0.000   129529924.38607         0.000          44.400  
  23829728.602 7         0.000   124087638.38007         0.000          46.500  
 22  6  2  5 26  0.0000000  0 14C01C02C03C04C05C07C10C11C12C13C14C21
                                C23C25
  37455921.523 6  37455925.219 7 195042844.20906         0.000          38.600  
  37458008.742 6  37458008.914 7 195053716.67206         0.000          37.700  
  36739413.781 7  36739413.984 7 191311765.23507         0.000          42.700  
  38547237.945 6  38547241.469 6 200725616.32506         0.000          38.700  
  39158910.977 5  39158913.328 5 203910736.61405         0.000          33.500  
  35803200.992 7  35803198.102 7 186436660.11007         0.000          46.000  
  35770706.711 7  35770706.785 7 186267450.11207         0.000          46.700  
  22543248.984 7  22543249.945 7 117388617.66607         0.000          46.200  
  23843646.773 7  23843648.340 7 124160125.71207         0.000          43.000  
  36778347.586 7  36778353.551 7 191514502.82107         0.000          45.900  
  24954574.234 6  24954582.336 7 129945003.76006         0.000          41.000  
  23474324.680 7         0.000   122236979.02407         0.000          44.700  
  24873627.148 7         0.000   129523506.04007         0.000          44.200  
  23830794.039 7         0.000   124093186.59007         0.000          46.400  
 22  6  2  5 26  5.0000000  0 14C01C02C03C04C05C07C10C11C12C13C14C21
                                C23C25
  37455192.219 6  37455195.996 7 195039046.43906         0.000          38.400  
  37457267.641 6  37457267.602 7 195049857.37506         0.000          37.800  
  36738663.828 7  36738664.059 7 191307861.01807         0.000          42.700  
  38546523.977 6  38546528.227 6 200721902.72906         0.000          38.600  
  39158165.531 5         0.000   203906850.16405         0.000          32.600  
  35802589.547 7  35802586.160 7 186433473.50507         0.000          45.100  
  35769751.844 7  35769752.012 7 186262477.81207         0.000          46.800  
  22542155.117 7  22542155.539 7 117382919.70407         0.000          45.700  
  23844029.719 7  23844031.234 7 124162118.86207         0.000          42.000  
  36777455.117 7  36777460.797 7 191509854.71507         0.000          46.400  
  24950833.953 6  24950842.625 7 129925528.15606         0.000          41.400  
  23473264.492 7         0.000   122231459.61907         0.000          44.400  
  24872397.375 7         0.000   129517102.39407         0.000          44.900  
  23831861.445 7         0.000   124098745.23307         0.000          46.800  
 22  6  2  5 26 10.0000000  0 14C01C02C03C04C05C07C10C11C12C13C14C21
                                C23C25
  37454463.203 6  37454467.012 7 195035250.46006         0.000          38.400  
  37456526.820 6  37456526.973 7 195045999.83606         0.000          37.800  
  36737913.992 7  36737914.715 7 191303958.60107         0.000          42.700  
  38545811.281 6  38545815.523 6 200718190.92406         0.000          38.600  
  39157419.375 5  39157420.664 5 203902965.37805         0.000          32.800  
  35801977.805 7  35801975.367 7 186430291.54707         0.000          44.900  
  35768797.719 7  35768797.922 7 186257509.81107         0.000          46.300  
  22541061.016 7  22541061.781 7 117377224.47807         0.000          46.300  
  23844413.336 7  23844414.328 7 124164114.65107         0.000          42.100  
  36776563.336 7  36776568.980 7 191505211.63507         0.000          46.000  
  24947093.633 6  24947102.645 7 129906054.22206         0.000          40.200  
  23472207.727 7         0.000   122225955.04507         0.000          44.300  
  24871171.031 7         0.000   129510712.97307         0.000          45.000  
  23832930.852 7         0.000   124104313.84007         0.000          46.300  
 22  6  2  5 26 15.0000000  0 13C01C02C03C04C07C10C11C12C13C14C21C23
                                C25
  37453734.727 6  37453738.391 7 195031457.36706         0.000          38.300  
  37455786.859 6  37455786.832 7 195042145.17706         0.000          38.000  
  36737165.531 7  36737165.949 7 191300059.09107         0.000          42.400  
  38545099.352 6  38545103.273 6 200714482.02206         0.000          38.200  
  35801368.336 7  35801365.375 7 186427115.32407         0.000          45.700  
  35767844.781 7  35767844.965 7 186252547.23707         0.000          46.100  
  22539968.063 7  22539968.676 7 117371533.10607         0.000          46.000  
  23844797.219 7  23844798.402 7 124166114.17207         0.000          42.900  
  36775672.773 7  36775678.598 7 191500574.73107         0.000          46.300  
  24943353.961 6  24943363.477 7 129886583.03106         0.000          41.000  
  23471153.445 7         0.000   122220466.40307         0.000          43.600  
  24869946.914 7         0.000   129504338.85407         0.000          45.600  
  23834002.344 7         0.000   124109893.46507         0.000          45.700  
 22  6  2  5 26 20.0000000  0 14C01C02C03C04C05C07C10C11C12C13C14C21
                                C23C25
  37453006.477 6  37453010.547 7 195027666.16106         0.000          38.700  
  37455047.086 6  37455046.762 7 195038292.35006         0.000          38.200  
  36736416.953 7  36736417.516 7 191296161.49207         0.000          42.700  
  38544387.547 6  38544391.594 6 200710775.00706         0.000          38.300  
  39155928.211 5  39155930.254 5 203895201.55805         0.000          33.000  
  35800758.922 7  35800756.402 7 186423943.87807         0.000          46.000  
  35766893.102 7  35766892.711 7 186247589.02207         0.000          47.300  
  22538876.211 7  22538876.438 7 117365844.53707         0.000          46.400  
  23845182.117 7  23845182.945 7 124168116.38707         0.000          42.600  
  36774783.594 7  36774789.082 7 191495942.89407         0.000          46.900  
  24939614.969 6  24939624.602 7 129867113.56306         0.000          40.700  
  23470102.047 7         0.000   122214992.68207         0.000          43.800  
  24868725.594 7         0.000   129497979.04107         0.000          45.600  
  23835075.711 7         0.000   124115483.10307         0.000          46.300  
 22  6  2  5 26 25.0000000  0 14C01C02C03C04C05C07C10C11C12C13C14C21
                                C23C25
  37452278.828 6  37452282.684 7 195023876.74206         0.000          38.300  
  37454307.531 6  37454307.203 7 195034441.29006         0.000          38.100  
  36735669.063 7  36735669.227 7 191292265.67507         0.000          42.700  
  38543675.844 6  38543679.785 6 200707069.78606         0.000          38.400  
  39155182.672 5  39155184.820 5 203891322.80905         0.000          32.800  
  35800151.070 7  35800148.121 7 186420777.07607         0.000          45.600  
  35765941.453 7  35765941.352 7 186242635.06607         0.000          46.300  
  22537784.742 7  22537784.547 7 117360158.68307         0.000          47.300  
  23845567.367 7  23845567.992 7 124170121.22807         0.000          43.400  
  36773894.898 7  36773900.602 7 191491316.05407         0.000          46.500  
  24935876.516 6  24935886.102 7 129847645.79206         0.000          40.500  
  23469053.477 7         0.000   122209533.76507         0.000          43.900  
  24867506.813 7         0.000   129491633.43007         0.000          44.900  
  23836151.344 7         0.000   124121082.66107         0.000          46.100  
 22  6  2  5 26 30.0000000  0 14C01C02C03C04C05C07C10C11C12C13C14C21
                                C23C25
  37451551.508 6  37451555.320 6 195020089.42806         0.000          38.300  
  37453568.070 6  37453568.168 7 195030592.30306         0.000          37.700  
  36734920.805 7  36734921.613 7 191288372.02107         0.000          42.500  
  38542965.047 6  38542968.789 6 200703366.68906         0.000          38.600  
  39154438.594 5  39154441.008 5 203887447.20805         0.000          32.800  
  35799543.859 7  35799540.969 7 186417615.24907         0.000          46.000  
  35764990.742 7  35764990.770 7 186237685.81807         0.000          46.300  
  22536693.008 7  22536693.039 7 117354475.97107         0.000          47.800  
  23845951.891 7  23845953.582 7 124172129.03707         0.000          42.800  
  36773007.133 7  36773013.094 7 191486694.58307         0.000          45.800  
  24932138.180 6  24932147.957 7 129828180.09306         0.000          40.400  
  23468008.164 7         0.000   122204090.06407         0.000          43.900  
  24866290.867 7         0.000   129485302.38707         0.000          44.700  
  23837228.398 7         0.000   124126692.47307         0.000          46.400  
 22  6  2  5 26 35.0000000  0 13C01C02C03C04C07C10C11C12C13C14C21C23
                                C25
  37450824.922 6  37450828.820 7 195016303.34206         0.000          38.600  
  37452828.828 6  37452829.211 7 195026744.53206         0.000          38.100  
  36734173.602 7  36734174.086 7 191284479.64007         0.000          42.700  
  38542253.555 6  38542257.906 6 200699664.88906         0.000          38.500  
  35798937.453 7  35798934.586 7 186414457.54107         0.000          45.900  
  35764041.117 7  35764041.082 7 186232740.26207         0.000          47.200  
  22535602.453 7  22535602.555 7 117348795.39307         0.000          47.500  
  23846337.969 6  23846339.566 7 124174138.94806         0.000          41.900  
  36772120.445 7  36772126.555 7 191482077.58207         0.000          45.800  
  24928400.461 6  24928410.016 7 129808715.51106         0.000          40.500  
  23466965.141 7         0.000   122198660.60607         0.000          42.900  
  24865077.539 7         0.000   129478985.00707         0.000          45.200  
  23838307.672 7         0.000   124132311.63507         0.000          46.000  
 22  6  2  5 26 40.0000000  0 14C01C02C03C04C05C07C10C11C12C13C14C21
                                C23C25
  37450098.047 6  37450101.734 7 195012518.45706         0.000          38.900  
  37452090.992 6  37452090.465 7 195022897.90706         0.000          38.300  
  36733426.500 7  36733426.785 7 191280588.42307         0.000          42.600  
  38541543.609 6  38541547.250 6 200695964.20606         0.000          38.700  
  39152950.094 5  39152952.078 5 203879697.50405         0.000          33.600  
  35798331.820 7  35798329.164 7 186411303.88407         0.000          44.900  
  35763092.281 7  35763091.922 7 186227798.36807         0.000          46.300  
  22534511.813 7  22534511.965 7 117343116.92607         0.000          47.700  
  23846724.391 7  23846725.980 7 124176150.85507         0.000          42.100  
  36771234.563 7  36771240.609 7 191477464.96507         0.000          46.100  
  24924662.781 6  24924672.426 7 129789252.00906         0.000          40.200  
  23465926.031 7         0.000   122193245.42907         0.000          43.200  
  24863866.547 7         0.000   129472681.19007         0.000          43.500  
  23839388.469 7         0.000   124137940.03807         0.000          46.100  
 22  6  2  5 26 45.0000000  0 14C01C02C03C04C05C07C10C11C12C13C14C21
                                C23C25
  37449371.078 6  37449374.934 6 195008735.00806         0.000          38.500  
  37451352.023 6  37451351.992 7 195019052.72806         0.000          38.200  
  36732679.117 7  36732679.723 7 191276698.71707         0.000          42.700  
  38540833.563 6  38540836.914 6 200692265.02706         0.000          38.600  
  39152206.156 5  39152208.711 5 203875824.70205         0.000          32.500  
  35797727.336 7  35797724.445 7 186408154.53907         0.000          44.700  
  35762143.750 7  35762143.707 7 186222860.49707         0.000          46.200  
  22533422.063 7  22533421.867 7 117337440.89107         0.000          47.600  
  23847110.727 6  23847113.035 7 124178165.05806         0.000          41.600  
  36770349.742 7  36770355.863 7 191472857.05707         0.000          46.100  
  24920925.063 6  24920934.879 7 129769789.90006         0.000          40.500  
  23464889.031 7         0.000   122187844.76707         0.000          42.700  
  24862658.570 7         0.000   129466391.29007         0.000          43.200  
  23840471.133 7         0.000   124143578.00907         0.000          46.600  
 22  6  2  5 26 50.0000000  0 14C01C02C03C04C05C07C10C11C12C13C14C21
                                C23C25
  37448645.188 6  37448648.754 7 195004953.64606         0.000          38.600  
  37450614.516 6  37450614.020 7 195015209.58806         0.000          38.100  
  36731933.063 7  36731933.145 7 191272811.07407         0.000          42.600  
  38540123.227 6  38540126.980 6 200688567.89806         0.000          38.600  
  39151463.492 5         0.000   203871952.34605         0.000          32.300  
  35797123.602 7  35797120.613 7 186405010.13107         0.000          46.000  
  35761196.414 7  35761196.164 7 186217927.20407         0.000          46.600  
  22532332.383 7  22532332.297 7 117331767.81807         0.000          47.700  
  23847498.422 6  23847500.316 7 124180182.18806         0.000          41.700  
  36769466.188 7  36769471.855 7 191468254.41907         0.000          46.100  
  24917188.180 6  24917197.785 7 129750329.81206         0.000          40.000  
  23463854.875 7         0.000   122182459.20007         0.000          42.600  
  24861453.656 7         0.000   129460115.86307         0.000          43.700  
  23841555.719 7         0.000   124149226.11907         0.000          45.600  
 22  6  2  5 26 55.0000000  0 14C01C02C03C04C05C07C10C11C12C13C14C21
                                C23C25
  37447919.531 6  37447923.199 6 195001174.58106         0.000          38.600  
  37449876.484 6  37449876.574 7 195011368.75606         0.000          37.900  
  36731186.531 7  36731187.051 7 191268925.81307         0.000          42.500  
  38539413.703 6  38539417.328 6 200684873.14606         0.000          38.700  
  39150720.109 5  39150721.539 5 203868079.37205         0.000          32.400  
  35796520.773 7  35796517.906 7 186401870.95707         0.000          46.400  
  35760249.688 7  35760249.867 7 186212998.76207         0.000          46.200  
  22531243.617 7  22531243.758 7 117326098.06207         0.000          47.300  
  23847886.148 6  23847888.070 7 124182202.49306         0.000          41.700  
  36768582.805 7  36768589.082 7 191463657.38807         0.000          46.000  
  24913451.742 6  24913461.207 7 129730872.02606         0.000          40.600  
  23462823.844 7         0.000   122177089.08307         0.000          43.300  
  24860251.195 7         0.000   129453855.19107         0.000          44.000  
  23842642.266 7         0.000   124154884.63107         0.000          45.800  
 22  6  2  5 27  0.0000000  0 14C01C02C03C04C05C07C10C11C12C13C14C21
                                C23C25
  37447194.117 6  37447197.984 7 194997398.03006         0.000          38.600  
  37449138.891 6  37449139.465 7 195007530.38206         0.000          38.100  
  36730441.070 7  36730441.410 7 191265043.04407         0.000          42.500  
  38538704.789 6  38538708.305 6 200681180.83806         0.000          38.400  
  39149977.297 5         0.000   203864213.36005         0.000          32.500  
  35795918.797 7  35795916.035 7 186398737.14607         0.000          45.800  
  35759304.234 7  35759304.340 7 186208075.30107         0.000          46.600  
  22530155.531 7  22530155.355 7 117320431.70607         0.000          47.200  
  23848274.883 7  23848276.777 7 124184226.13607         0.000          42.100  
  36767701.625 7  36767707.461 7 191459066.06407         0.000          46.000  
  24909715.656 6  24909724.652 7 129711416.69306         0.000          40.800  
  23461795.563 7         0.000   122171734.49207         0.000          44.200  
  24859051.875 7         0.000   129447609.41107         0.000          43.200  
  23843731.219 7         0.000   124160553.69207         0.000          45.700  
 22  6  2  5 27  5.0000000  0 14C01C02C03C04C05C07C10C11C12C13C14C21
                                C23C25
  37446468.859 6  37446472.605 7 194993621.75606         0.000          38.400  
  37448403.109 6  37448402.285 7 195003692.27906         0.000          38.300  
  36729695.492 7  36729695.758 7 191261160.61107         0.000          42.400  
  38537995.500 6  38537999.270 6 200677488.88006         0.000          38.300  
  39149234.859 5  39149237.844 4 203860348.63705         0.000          33.400  
  35795317.961 7  35795314.676 7 186395606.47007         0.000          45.600  
  35758359.258 7  35758359.578 7 186203154.71207         0.000          46.200  
  22529067.039 7  22529067.641 7 117314766.64607         0.000          47.000  
  23848664.500 7  23848665.445 7 124186250.97807         0.000          43.000  
  36766820.148 7  36766826.570 7 191454478.21807         0.000          46.000  
  24905979.305 6  24905988.539 7 129691961.58806         0.000          40.900  
  23460769.875 7         0.000   122166393.27107         0.000          44.800  
  24857854.820 7         0.000   129441376.39907         0.000          42.900  
  23844821.102 7         0.000   124166231.06907         0.000          45.400  
 22  6  2  5 27 10.0000000  0 14C01C02C03C04C05C07C10C11C12C13C14C21
                                C23C25
  37445743.945 6  37445748.105 7 194989846.74006         0.000          38.600  
  37447664.977 6  37447665.043 7 194999855.35706         0.000          37.700  
  36728949.766 7  36728950.688 7 191257279.41107         0.000          42.400  
  38537286.672 6  38537290.473 6 200673798.18806         0.000          38.800  
  39148494.227 5  39148495.203 5 203856483.09605         0.000          32.300  
  35794717.328 7  35794714.387 7 186392479.96207         0.000          46.200  
  35757414.734 7  35757415.289 7 186198237.91107         0.000          45.900  
  22527979.773 7  22527980.348 7 117309103.72107         0.000          47.200  
  23849052.914 7  23849054.910 7 124188277.85707         0.000          42.500  
  36765940.164 7  36765946.406 7 191449894.81907         0.000          46.200  
  24902244.273 6  24902252.781 7 129672507.69706         0.000          41.100  
  23459747.414 7         0.000   122161066.40507         0.000          45.200  
  24856660.531 7         0.000   129435157.00907         0.000          43.900  
  23845913.531 7         0.000   124171917.69507         0.000          44.800  
 22  6  2  5 27 15.0000000  0 14C01C02C03C04C05C07C10C11C12C13C14C21
                                C23C25
  37445019.453 6  37445023.359 7 194986073.65806         0.000          38.400  
  37446928.500 6  37446928.813 7 194996020.31306         0.000          37.600  
  36728205.500 7  36728205.602 7 191253400.15407         0.000          42.500  
  38536578.406 6  38536582.160 6 200670109.38906         0.000          38.700  
  39147752.219 5  39147753.766 5 203852619.42905         0.000          32.300  
  35794117.977 7  35794115.008 7 186389358.25607         0.000          46.400  
  35756471.750 7  35756472.012 7 186193325.50207         0.000          46.600  
  22526892.555 7  22526893.496 7 117303443.64507         0.000          46.600  
  23849442.852 7  23849444.668 7 124190307.54307         0.000          42.600  
  36765060.734 7  36765067.195 7 191445316.52507         0.000          45.700  
  24898508.539 6  24898517.258 7 129653055.77106         0.000          41.500  
  23458726.547 7         0.000   122155754.52807         0.000          45.200  
  24855468.891 7         0.000   129428951.98807         0.000          43.300  
  23847007.359 7         0.000   124177614.30607         0.000          44.100  
 22  6  2  5 27 20.0000000  0 14C01C02C03C04C05C07C10C11C12C13C14C21
                                C23C25
  37444295.250 6  37444299.000 6 194982301.83306         0.000          38.600  
  37446192.922 6  37446192.594 7 194992186.57606         0.000          37.900  
  36727460.508 7  36727461.090 7 191249522.21307         0.000          42.600  
  38535870.219 6  38535874.152 6 200666421.92306         0.000          38.400  
  39147010.320 5  39147011.934 5 203848758.08005         0.000          32.800  
  35793519.125 7  35793516.027 7 186386240.73207         0.000          46.400  
  35755529.000 7  35755529.410 7 186188416.94607         0.000          46.300  
  22525806.469 7  22525807.180 7 117297785.83607         0.000          46.600  
  23849833.602 7  23849834.676 7 124192339.41407         0.000          42.000  
  36764182.625 7  36764188.844 7 191440742.76607         0.000          45.900  
  24894773.438 6  24894782.055 7 129633605.16706         0.000          40.800  
  23457709.477 7         0.000   122150457.04607         0.000          46.200  
  24854279.859 7         0.000   129422760.68407         0.000          43.200  
  23848103.344 7         0.000   124183320.21107         0.000          44.100  
 22  6  2  5 27 25.0000000  0 14C01C02C03C04C05C07C10C11C12C13C14C21
                                C23C25
  37443571.547 6  37443575.016 7 194978531.72506         0.000          38.600  
  37445456.859 6  37445456.828 7 194988354.53506         0.000          37.800  
  36726715.906 7  36726716.516 7 191245645.98207         0.000          42.400  
  38535162.320 6  38535166.172 6 200662736.14806         0.000          38.300  
  39146269.000 5  39146270.637 5 203844898.37405         0.000          32.600  
  35792921.336 7  35792918.477 7 186383127.77307         0.000          46.900  
  35754587.242 7  35754587.672 7 186183512.59507         0.000          46.300  
  22524720.656 7  22524721.039 8 117292130.65707         0.000          47.200  
  23850224.430 7  23850225.473 7 124194373.82207         0.000          42.300  
  36763305.055 7  36763311.371 7 191436173.90807         0.000          46.000  
  24891038.898 6  24891046.820 7 129614156.20606         0.000          40.500  
  23456694.898 7         0.000   122145174.32707         0.000          46.000  
  24853093.617 7         0.000   129416583.51307         0.000          42.900  
  23849200.844 7         0.000   124189035.80107         0.000          44.400  
 22  6  2  5 27 30.0000000  0 14C01C02C03C04C05C07C10C11C12C13C14C21
                                C23C25
  37442847.406 6  37442851.309 6 194974763.12806         0.000          38.500  
  37444721.211 6  37444720.965 7 194984523.92206         0.000          38.200  
  36725971.930 7  36725972.488 7 191241771.28107         0.000          42.400  
  38534454.602 6  38534458.586 6 200659051.87206         0.000          37.900  
  39145526.641 5  39145529.746 5 203841041.19705         0.000          32.900  
  35792324.742 7  35792321.434 7 186380019.20607         0.000          46.700  
  35753646.484 7  35753646.359 7 186178612.27907         0.000          47.000  
  22523634.680 8  22523635.094 7 117286477.93508         0.000          48.000  
  23850615.555 7  23850616.637 7 124196410.58207         0.000          42.500  
  36762428.789 7  36762434.961 7 191431609.79407         0.000          46.000  
  24887303.266 6  24887312.141 7 129594708.84506         0.000          41.100  
  23455683.148 7         0.000   122139906.21607         0.000          46.000  
  24851910.211 7         0.000   129410420.22607         0.000          43.400  
  23850300.305 7         0.000   124194760.91007         0.000          44.500  
 22  6  2  5 27 35.0000000  0 14C01C02C03C04C05C07C10C11C12C13C14C21
                                C23C25
  37442124.188 6  37442127.430 6 194970996.16306         0.000          38.900  
  37443985.914 6  37443985.727 7 194980694.96006         0.000          37.800  
  36725228.680 7  36725228.945 7 191237898.22907         0.000          42.700  
  38533747.609 6  38533751.371 6 200655369.26406         0.000          38.100  
  39144787.016 5  39144789.324 5 203837184.57405         0.000          33.200  
  35791728.250 7  35791725.469 7 186376915.18107         0.000          46.800  
  35752705.836 7  35752706.258 7 186173716.13207         0.000          46.400  
  22522549.563 7  22522549.887 7 117280827.76807         0.000          47.800  
  23851006.836 7  23851008.227 7 124198449.86207         0.000          42.600  
  36761553.117 7  36761559.355 7 191427050.57807         0.000          46.200  
  24883569.805 6  24883577.871 7 129575263.14506         0.000          41.600  
  23454674.023 7         0.000   122134652.84907         0.000          44.900  
  24850729.477 7         0.000   129404271.04107         0.000          44.200  
  23851401.844 7         0.000   124200495.63407         0.000          44.800  
 22  6  2  5 27 40.0000000  0 13C01C02C03C04C07C10C11C12C13C14C21C23
                                C25
  37441401.047 6  37441404.660 6 194967230.69706         0.000          38.600  
  37443251.102 6  37443250.957 7 194976867.46606         0.000          37.900  
  36724484.953 7  36724485.211 7 191234026.76807         0.000          42.500  
  38533040.641 6  38533044.516 6 200651688.18406         0.000          38.300  
  35791132.773 7  35791129.988 7 186373815.56807         0.000          46.300  
  35751766.852 7  35751766.566 7 186168824.04007         0.000          46.600  
  22521465.523 8  22521465.254 7 117275180.08408         0.000          48.100  
  23851399.594 7  23851400.453 7 124200491.57607         0.000          42.600  
  36760678.484 7  36760684.746 7 191422496.05607         0.000          45.300  
  24879835.102 6  24879843.609 7 129555819.04806         0.000          40.600  
  23453667.984 7         0.000   122129414.13007         0.000          44.700  
  24849551.328 7         0.000   129398135.79707         0.000          44.600  
  23852504.750 7         0.000   124206239.87507         0.000          44.100  
 22  6  2  5 27 45.0000000  0 14C01C02C03C04C05C07C10C11C12C13C14C21
                                C23C25
  37440678.547 6  37440682.023 6 194963467.83006         0.000          38.700  
  37442516.609 6  37442516.316 7 194973042.48106         0.000          37.900  
  36723741.852 7  36723742.203 7 191230157.88807         0.000          42.600  
  38532334.172 6  38532337.891 6 200648009.69506         0.000          38.000  
  39143306.656 5  39143309.113 5 203829476.98005         0.000          32.800  
  35790538.414 7  35790535.645 7 186370721.38507         0.000          46.900  
  35750827.813 7  35750828.324 7 186163937.07207         0.000          44.700  
  22520381.391 7  22520381.336 7 117269535.91707         0.000          47.500  
  23851791.727 7  23851793.176 7 124202536.68407         0.000          42.700  
  36759804.859 7  36759811.375 7 191417947.31707         0.000          45.300  
  24876101.594 6  24876110.254 7 129536377.50506         0.000          40.800  
  23452664.969 7         0.000   122124191.06807         0.000          44.600  
  24848376.117 7         0.000   129392015.54907         0.000          44.000  
  23853609.805 7         0.000   124211994.64507         0.000          44.600  
 22  6  2  5 27 50.0000000  0 14C01C02C03C04C05C07C10C11C12C13C14C21
                                C23C25
  37439955.938 6  37439959.895 6 194959706.03606         0.000          39.300  
  37441781.734 6  37441782.070 7 194969218.59306         0.000          38.100  
  36722999.023 7  36722999.457 7 191226290.08407         0.000          42.600  
  38531627.680 6  38531631.965 6 200644332.27306         0.000          38.300  
  39142568.219 5  39142569.746 5 203825622.91305         0.000          32.300  
  35789945.055 7  35789942.379 7 186367631.19407         0.000          46.300  
  35749890.086 7  35749890.383 7 186159053.67207         0.000          46.200  
  22519297.992 7  22519297.969 7 117263893.75707         0.000          47.400  
  23852185.070 7  23852186.609 7 124204583.77707         0.000          43.000  
  36758931.859 7  36758938.344 7 191413402.88807         0.000          45.400  
  24872369.195 6  24872377.113 7 129516937.15206         0.000          40.800  
  23451665.133 7         0.000   122118982.18107         0.000          44.300  
  24847203.086 7         0.000   129385908.76107         0.000          45.100  
  23854717.016 7         0.000   124217758.39907         0.000          45.600  
 22  6  2  5 27 55.0000000  0 13C01C02C03C04C07C10C11C12C13C14C21C23
                                C25
  37439233.992 6  37439237.738 6 194955946.26506         0.000          38.600  
  37441048.047 6  37441047.965 7 194965396.68306         0.000          38.400  
  36722256.273 7  36722257.105 7 191222424.34307         0.000          42.500  
  38530921.836 6  38530926.035 6 200640656.91506         0.000          38.300  
  35789352.813 7  35789349.762 7 186364545.90207         0.000          46.800  
  35748953.328 7  35748953.453 7 186154174.85807         0.000          46.200  
  22518214.891 7  22518214.754 7 117258254.60307         0.000          47.600  
  23852579.086 7  23852580.324 7 124206633.75007         0.000          43.000  
  36758060.117 7  36758066.434 7 191408863.66607         0.000          45.800  
  24868636.063 6  24868644.156 7 129497498.94706         0.000          40.700  
  23450667.813 7         0.000   122113788.43807         0.000          44.400  
  24846033.758 7         0.000   129379816.43807         0.000          44.300  
  23855825.766 7         0.000   124223532.13107         0.000          45.300  
 22  6  2  5 28  0.0000000  0 14C01C02C03C04C05C07C10C11C12C13C14C21
                                C23C25
  37438512.352 6  37438515.617 6 194952187.73306         0.000          39.000  
  37440314.469 6  37440314.152 7 194961575.97106         0.000          38.000  
  36721514.398 7  36721514.953 7 191218559.83007         0.000          43.000  
  38530216.211 6  38530220.426 6 200636982.78606         0.000          37.800  
  39141090.039 5  39141091.645 5 203817910.71405         0.000          32.900  
  35788761.047 7  35788758.070 7 186361464.73507         0.000          45.600  
  35748016.859 7  35748017.277 7 186149299.80007         0.000          45.500  
  22517132.320 8  22517132.125 7 117252617.59108         0.000          48.000  
  23852972.383 7  23852974.082 7 124208685.84607         0.000          42.500  
  36757189.445 7  36757195.848 7 191404328.91007         0.000          45.100  
  24864901.852 6  24864911.688 7 129478062.03706         0.000          40.400  
  23449673.117 7         0.000   122108609.03207         0.000          43.300  
  24844865.492 7         0.000   129373737.78807         0.000          44.500  
  23856936.188 7         0.000   124229315.04107         0.000          44.700  
 22  6  2  5 28  5.0000000  0 14C01C02C03C04C05C07C10C11C12C13C14C21
                                C23C25
  37437791.188 6  37437794.359 6 194948431.61906         0.000          39.300  
  37439581.273 6  37439581.203 7 194957757.69806         0.000          38.200  
  36720773.141 7  36720773.234 7 191214697.78507         0.000          42.900  
  38529511.969 6  38529515.371 6 200633311.05706         0.000          38.100  
  39140350.023 5  39140352.480 5 203814064.85005         0.000          33.600  
  35788170.320 7  35788167.359 7 186358388.87207         0.000          46.400  
  35747081.883 7  35747081.809 7 186144429.71407         0.000          46.300  
  22516050.445 7  22516050.270 7 117246983.91107         0.000          47.800  
  23853367.109 7  23853368.867 7 124210741.23507         0.000          43.000  
  36756319.328 7  36756326.023 7 191399799.73707         0.000          44.900  
  24861171.070 6  24861179.477 7 129458627.65906         0.000          40.800  
  23448681.609 7         0.000   122103445.18807         0.000          44.300  
  24843701.031 7         0.000   129367673.99107         0.000          44.300  
  23858048.594 7         0.000   124235108.26307         0.000          44.700  
 22  6  2  5 28 10.0000000  0 14C01C02C03C04C05C07C10C11C12C13C14C21
                                C23C25
  37437070.117 6  37437073.406 6 194944676.87306         0.000          39.600  
  37438848.125 6  37438848.129 7 194953940.72006         0.000          38.400  
  36720031.492 7  36720032.031 7 191210837.09807         0.000          42.600  
  38528807.125 6  38528810.684 6 200629640.73306         0.000          37.500  
  39139612.664 5  39139614.625 5 203810221.28805         0.000          33.500  
  35787580.313 7  35787577.438 7 186355317.28207         0.000          46.700  
  35746147.336 7  35746147.473 7 186139563.56607         0.000          46.600  
  22514969.148 7  22514969.023 7 117241352.58207         0.000          47.500  
  23853762.336 6  23853764.172 7 124212798.90806         0.000          41.800  
  36755450.563 7  36755457.262 7 191395275.14407         0.000          45.200  
  24857438.680 6  24857447.555 7 129439194.74306         0.000          40.400  
  23447692.547 7         0.000   122098295.83107         0.000          44.900  
  24842539.641 7         0.000   129361623.97007         0.000          43.800  
  23859163.039 7         0.000   124240910.75707         0.000          44.500  
 22  6  2  5 28 15.0000000  0 14C01C02C03C04C05C07C10C11C12C13C14C21
                                C23C25
  37436349.078 6  37436352.473 6 194940922.40306         0.000          39.200  
  37438115.227 6  37438115.316 7 194950124.05106         0.000          38.100  
  36719290.430 7  36719290.340 7 191206976.77407         0.000          42.600  
  38528102.422 6  38528105.809 6 200625970.72606         0.000          37.800  
  39138873.375 5  39138876.340 5 203806378.05205         0.000          32.500  
  35786990.805 7  35786988.254 7 186352248.92607         0.000          47.000  
  35745213.570 7  35745213.695 7 186134700.26507         0.000          45.900  
  22513888.016 7  22513887.836 7 117235722.49907         0.000          47.900  
  23854157.586 6  23854159.703 7 124214857.73206         0.000          41.900  
  36754582.789 7  36754588.949 7 191390754.07907         0.000          44.600  
  24853707.586 6  24853715.797 7 129419762.30006         0.000          40.600  
  23446705.852 7         0.000   122093159.93107         0.000          44.300  
  24841380.172 7         0.000   129355586.66307         0.000          44.300  
  23860279.055 7         0.000   124246721.45707         0.000          45.200  
 22  6  2  5 28 20.0000000  0 14C01C02C03C04C05C07C10C11C12C13C14C21
                                C23C25
  37435628.484 6  37435631.930 6 194937170.17906         0.000          39.300  
  37437382.234 6  37437382.551 7 194946309.51406         0.000          37.800  
  36718549.289 7  36718549.707 7 191203118.62907         0.000          42.600  
  38527397.836 6  38527401.535 6 200622302.92906         0.000          38.300  
  39138135.820 5  39138138.520 5 203802535.92105         0.000          33.200  
  35786402.539 7  35786399.844 7 186349185.64407         0.000          47.000  
  35744280.773 7  35744280.707 7 186129841.70907         0.000          45.800  
  22512807.156 7  22512807.027 7 117230095.55107         0.000          47.900  
  23854553.852 7  23854555.523 7 124216919.65807         0.000          42.700  
  36753715.266 7  36753721.980 7 191386238.38507         0.000          44.600  
  24849975.477 6  24849984.227 7 129400332.17506         0.000          39.900  
  23445722.750 7         0.000   122088039.31107         0.000          44.900  
  24840223.219 7         0.000   129349563.97307         0.000          43.900  
  23861397.500 7         0.000   124252542.25007         0.000          45.800  
 22  6  2  5 28 25.0000000  0 14C01C02C03C04C05C07C10C11C12C13C14C21
                                C23C25
  37434907.508 6  37434911.480 6 194933418.96206         0.000          39.000  
  37436650.008 6  37436650.172 7 194942496.00106         0.000          37.500  
  36717808.453 7  36717808.887 7 191199261.55307         0.000          42.800  
  38526692.938 6  38526697.160 6 200618636.14606         0.000          37.900  
  39137398.805 5  39137400.383 5 203798694.82805         0.000          32.800  
  35785815.047 7  35785812.449 7 186346126.26907         0.000          45.800  
  35743348.078 7  35743348.328 7 186124986.75607         0.000          46.400  
  22511727.109 8  22511726.855 7 117224470.58408         0.000          48.000  
  23854950.172 7  23854951.887 7 124218983.49407         0.000          43.000  
  36752849.023 7  36752855.488 7 191381726.92707         0.000          45.100  
  24846244.672 6  24846253.156 7 129380903.22706         0.000          39.900  
  23444741.961 7         0.000   122082932.89507         0.000          44.700  
  24839069.320 7         0.000   129343554.75407         0.000          43.900  
  23862516.633 7         0.000   124258371.94607         0.000          46.000  
 22  6  2  5 28 30.0000000  0 13C01C02C03C04C07C10C11C12C13C14C21C23
                                C25
  37434187.797 6  37434191.680 7 194929669.83706         0.000          38.700  
  37435918.109 6  37435918.469 7 194938684.55006         0.000          38.100  
  36717068.227 7  36717068.586 7 191195406.57107         0.000          42.500  
  38525989.641 6  38525993.738 6 200614971.48606         0.000          38.800  
  35785228.727 7  35785225.855 7 186343071.93107         0.000          45.900  
  35742416.773 7  35742416.773 7 186120136.41807         0.000          46.200  
  22510647.445 7  22510647.020 7 117218848.61507         0.000          47.600  
  23855347.352 7  23855349.090 7 124221050.33507         0.000          43.200  
  36751983.445 7  36751990.199 7 191377220.73807         0.000          44.900  
  24842513.750 6  24842522.219 6 129361476.52506         0.000          39.900  
  23443764.273 7         0.000   122077841.67507         0.000          45.300  
  24837918.594 7         0.000   129337560.02507         0.000          43.700  
  23863638.320 7         0.000   124264211.58207         0.000          45.500  
 22  6  2  5 28 35.0000000  0 13C01C02C03C04C07C10C11C12C13C14C21C23
                                C25
  37433468.000 6  37433471.828 7 194925922.02106         0.000          39.000  
  37435186.945 6  37435186.730 7 194934874.36306         0.000          37.800  
  36716328.344 7  36716328.629 7 191191552.96107         0.000          42.500  
  38525286.617 6  38525290.262 6 200611308.16106         0.000          38.800  
  35784642.336 7  35784640.055 7 186340021.75407         0.000          45.900  
  35741486.016 7  35741486.250 7 186115289.95507         0.000          46.800  
  22509568.039 7  22509567.770 7 117213228.91407         0.000          47.500  
  23855744.172 7  23855746.336 7 124223119.37307         0.000          42.300  
  36751119.133 7  36751125.688 7 191372718.99607         0.000          44.700  
  24838783.992 6  24838791.867 7 129342051.31006         0.000          40.400  
  23442789.383 7         0.000   122072764.93907         0.000          44.100  
  24836769.734 7         0.000   129331579.02807         0.000          42.700  
  23864761.555 7         0.000   124270060.39907         0.000          45.700  
 22  6  2  5 28 40.0000000  0 14C01C02C03C04C05C07C10C11C12C13C14C21
                                C23C25
  37432748.609 6  37432752.551 6 194922175.94606         0.000          38.600  
  37434455.602 6  37434455.359 7 194931065.94606         0.000          37.900  
  36715588.289 7  36715588.891 7 191187701.11207         0.000          42.600  
  38524583.398 6  38524587.246 6 200607646.56406         0.000          38.600  
  39135188.102 5  39135190.199 5 203787184.17805         0.000          32.900  
  35784057.711 7  35784055.281 7 186336976.25907         0.000          46.900  
  35740555.969 7  35740556.340 7 186110447.79807         0.000          47.000  
  22508489.320 7  22508489.242 7 117207611.94407         0.000          47.800  
  23856142.500 7  23856144.016 7 124225191.06407         0.000          43.000  
  36750255.773 7  36750261.992 7 191368222.25107         0.000          45.200  
  24835053.844 6  24835061.770 6 129322628.08906         0.000          41.100  
  23441817.148 7         0.000   122067703.07807         0.000          44.300  
  24835624.164 7         0.000   129325612.22107         0.000          42.900  
  23865886.648 7         0.000   124275918.79907         0.000          46.100  
 22  6  2  5 28 45.0000000  0 14C01C02C03C04C05C07C10C11C12C13C14C21
                                C23C25
  37432029.820 6  37432033.297 7 194918431.47306         0.000          38.600  
  37433724.352 6  37433724.063 7 194927259.03206         0.000          38.300  
  36714849.336 7  36714849.520 7 191183850.85207         0.000          42.600  
  38523880.016 6  38523884.176 6 200603986.56206         0.000          38.800  
  39134451.344 5  39134453.188 5 203783349.74105         0.000          33.600  
  35783473.922 7  35783471.340 7 186333935.26907         0.000          46.100  
  35739627.117 7  35739627.004 7 186105609.82007         0.000          46.800  
  22507411.258 7  22507410.855 7 117201997.44307         0.000          47.300  
  23856540.852 7  23856542.262 7 124227265.19907         0.000          43.200  
  36749392.766 7  36749399.660 7 191363730.28807         0.000          44.900  
  24831323.820 6  24831332.238 6 129303206.57806         0.000          39.800  
  23440847.531 7         0.000   122062655.95507         0.000          42.800  
  24834480.602 7         0.000   129319659.39207         0.000          43.400  
  23867013.508 7         0.000   124281786.61607         0.000          45.900  
 22  6  2  5 28 50.0000000  0 13C01C02C03C04C07C10C11C12C13C14C21C23
                                C25
  37431311.117 6  37431314.688 7 194914688.65906         0.000          38.600  
  37432993.117 6  37432993.422 7 194923453.78506         0.000          38.100  
  36714110.063 7  36714110.371 7 191180002.31007         0.000          42.300  
  38523178.086 6  38523181.555 6 200600328.26406         0.000          38.700  
  35782890.750 7  35782888.215 7 186330898.86007         0.000          46.100  
  35738699.133 7  35738699.141 7 186100776.09007         0.000          46.800  
  22506333.711 7  22506333.227 7 117196385.57407         0.000          47.100  
  23856939.789 7  23856940.840 7 124229341.93507         0.000          43.200  
  36748531.367 7  36748537.750 7 191359243.19307         0.000          45.500  
  24827594.391 6  24827603.219 6 129283786.97906         0.000          39.900  
  23439881.922 7         0.000   122057623.66907         0.000          44.300  
  24833340.078 7         0.000   129313720.70707         0.000          43.700  
  23868142.297 7         0.000   124287663.95907         0.000          46.000  
 22  6  2  5 28 55.0000000  0 13C01C02C03C04C07C10C11C12C13C14C21C23
                                C25
  37430592.250 6  37430596.273 7 194910946.50306         0.000          38.400  
  37432262.672 6  37432262.914 7 194919649.20606         0.000          37.800  
  36713370.695 7  36713371.406 7 191176154.45907         0.000          42.300  
  38522475.391 6  38522479.418 6 200596670.64606         0.000          38.600  
  35782308.680 7  35782305.891 7 186327866.01407         0.000          46.300  
  35737771.563 7  35737771.328 7 186095945.57107         0.000          47.100  
  22505255.906 7  22505255.863 7 117190775.31707         0.000          46.400  
  23857338.992 7  23857340.254 7 124231420.24907         0.000          42.600  
  36747670.313 7  36747676.953 7 191354759.97607         0.000          45.000  
  24823865.094 6  24823874.422 6 129264368.26706         0.000          39.900  
  23438917.852 7         0.000   122052605.19307         0.000          44.400  
  24832201.875 7         0.000   129307795.06307         0.000          43.000  
  23869272.461 7         0.000   124293549.74307         0.000          45.700  
 22  6  2  5 29  0.0000000  0 14C01C02C03C04C05C07C10C11C12C13C14C21
                                C23C25
  37429874.219 6  37429877.945 7 194907205.98906         0.000          38.800  
  37431532.555 6  37431532.441 7 194915846.17506         0.000          38.400  
  36712632.461 7  36712632.824 7 191172308.21607         0.000          42.400  
  38521773.297 6  38521777.195 6 200593014.62106         0.000          38.200  
  39132242.742 5  39132245.754 5 203771855.27805         0.000          33.100  
  35781726.961 7  35781724.457 7 186324837.68207         0.000          46.700  
  35736844.906 7  35736844.473 7 186091119.23107         0.000          47.200  
  22504179.023 7  22504178.969 7 117185167.60607         0.000          46.200  
  23857738.289 7  23857739.883 7 124233501.08207         0.000          42.300  
  36746810.266 7  36746816.969 7 191350281.50907         0.000          44.900  
  24820136.617 6  24820145.516 7 129244951.36106         0.000          39.400  
  23437957.102 7         0.000   122047601.47607         0.000          45.000  
  24831066.578 7         0.000   129301883.47307         0.000          43.400  
  23870404.430 7         0.000   124299444.96307         0.000          45.600  
 22  6  2  5 29  5.0000000  0 14C01C02C03C04C05C07C10C11C12C13C14C21
                                C23C25
  37429155.695 6  37429159.723 6 194903466.90306         0.000          38.700  
  37430802.000 6  37430802.340 7 194912044.53806         0.000          38.200  
  36711893.883 7  36711894.633 7 191168463.46607         0.000          42.400  
  38521071.438 6  38521075.273 6 200589360.05106         0.000          38.000  
  39131507.500 5  39131510.461 5 203768026.13305         0.000          32.900  
  35781146.055 7  35781143.613 7 186321813.74607         0.000          46.700  
  35735918.461 7  35735918.184 7 186086296.90807         0.000          47.200  
  22503102.453 7  22503102.547 7 117179562.26507         0.000          46.300  
  23858138.008 7  23858139.891 7 124235584.27307         0.000          42.200  
  36745951.141 7  36745957.672 7 191345807.67907         0.000          45.100  
  24816408.219 6  24816417.660 7 129225536.19806         0.000          40.600  
  23436998.539 7         0.000   122042612.37807         0.000          45.500  
  24829933.938 7         0.000   129295985.72707         0.000          43.600  
  23871537.961 7         0.000   124305349.41107         0.000          45.800  
 22  6  2  5 29 10.0000000  0 14C01C02C03C04C05C07C10C11C12C13C14C21
                                C23C25
  37428438.086 6  37428441.965 6 194899728.73406         0.000          38.900  
  37430073.148 6  37430072.488 7 194908243.81006         0.000          37.900  
  36711155.977 7  36711156.383 7 191164619.60607         0.000          42.300  
  38520370.031 6  38520373.773 6 200585706.41006         0.000          38.000  
  39130773.750 5  39130775.617 5 203764198.84205         0.000          33.400  
  35780566.172 7  35780563.641 7 186318793.59907         0.000          47.000  
  35734992.906 7  35734992.965 7 186081478.05007         0.000          47.300  
  22502026.414 7  22502026.492 7 117173958.76907         0.000          46.900  
  23858538.766 7  23858540.449 7 124237669.26507         0.000          42.200  
  36745092.758 7  36745099.418 7 191341337.89207         0.000          45.000  
  24812679.734 6  24812689.230 7 129206122.12406         0.000          39.900  
  23436043.305 7         0.000   122037637.35607         0.000          44.900  
  24828804.227 7         0.000   129290101.28407         0.000          43.900  
  23872673.773 7         0.000   124311262.52407         0.000          45.200  
 22  6  2  5 29 15.0000000  0 14C01C02C03C04C05C07C10C11C12C13C14C21
                                C23C25
  37427720.805 6  37427724.070 7 194895992.32906         0.000          38.600  
  37429342.883 6  37429342.988 7 194904444.81706         0.000          38.300  
  36710418.125 7  36710418.707 7 191160777.56507         0.000          42.100  
  38519668.547 6  38519672.559 6 200582054.51406         0.000          38.300  
  39130038.117 5  39130040.848 5 203760372.39905         0.000          32.900  
  35779987.461 7  35779984.691 7 186315778.10007         0.000          45.700  
  35734068.398 7  35734068.465 7 186076663.51607         0.000          47.200  
  22500950.906 7  22500950.895 7 117168357.98307         0.000          46.300  
  23858939.906 7  23858941.207 7 124239756.90207         0.000          43.100  
  36744235.305 7  36744241.859 7 191336873.11707         0.000          45.500  
  24808952.125 6  24808961.566 7 129186710.11306         0.000          40.400  
  23435090.586 7         0.000   122032677.23807         0.000          44.600  
  24827677.008 7         0.000   129284231.04507         0.000          43.100  
  23873811.328 7         0.000   124317185.19507         0.000          45.600  
 22  6  2  5 29 20.0000000  0 14C01C02C03C04C05C07C10C11C12C13C14C21
                                C23C25
  37427002.875 6  37427006.781 6 194892256.77006         0.000          38.700  
  37428613.648 6  37428613.969 7 194900646.65206         0.000          38.500  
  36709680.586 7  36709681.047 7 191156936.38007         0.000          42.600  
  38518967.656 6  38518971.508 7 200578403.51906         0.000          38.300  
  39129303.547 5  39129305.703 5 203756546.75505         0.000          33.100  
  35779409.367 7  35779406.156 7 186312766.39807         0.000          45.800  
  35733144.664 7  35733144.402 7 186071852.42807         0.000          47.300  
  22499875.523 7  22499875.777 7 117162759.01407         0.000          46.900  
  23859341.383 7  23859342.688 7 124241846.36007         0.000          42.500  
  36743378.383 7  36743385.102 7 191332412.37007         0.000          45.700  
  24805223.961 6  24805233.488 7 129167299.21306         0.000          40.600  
  23434140.547 7         0.000   122027731.15907         0.000          44.800  
  24826552.195 7         0.000   129278374.06607         0.000          43.800  
  23874950.789 7         0.000   124323116.46207         0.000          45.800  
 22  6  2  5 29 25.0000000  0 14C01C02C03C04C05C07C10C11C12C13C14C21
                                C23C25
  37426285.766 6  37426289.855 7 194888521.84406         0.000          38.500  
  37427884.516 6  37427884.477 7 194896849.12706         0.000          38.000  
  36708942.828 7  36708943.625 7 191153095.88607         0.000          42.600  
  38518266.102 6  38518270.391 6 200574753.14206         0.000          37.900  
  39128569.000 5  39128570.805 5 203752720.73305         0.000          32.800  
  35778831.648 7  35778828.691 7 186309758.25407         0.000          45.000  
  35732221.461 7  35732221.340 7 186067044.53207         0.000          47.300  
  22498800.711 7  22498800.684 7 117157161.65207         0.000          46.800  
  23859742.672 7  23859744.438 7 124243937.36707         0.000          42.800  
  36742522.820 7  36742529.207 7 191327955.42807         0.000          46.300  
  24801496.711 6  24801506.406 7 129147889.28406         0.000          40.200  
  23433193.188 7         0.000   122022798.93807         0.000          45.100  
  24825429.633 7         0.000   129272530.15707         0.000          43.400  
  23876091.398 7         0.000   124329056.12107         0.000          45.400  
 22  6  2  5 29 30.0000000  0 14C01C02C03C04C05C07C10C11C12C13C14C21
                                C23C25
  37425568.648 6  37425572.703 6 194884788.11606         0.000          38.600  
  37427155.367 6  37427155.250 7 194893052.74906         0.000          38.200  
  36708205.883 7  36708206.102 7 191149256.63507         0.000          42.700  
  38517565.789 6  38517569.652 6 200571104.06206         0.000          38.300  
  39127833.906 5  39127836.645 5 203748896.87105         0.000          33.200  
  35778254.523 7  35778251.672 7 186306754.26707         0.000          45.800  
  35731298.875 7  35731298.793 7 186062240.48407         0.000          47.200  
  22497726.055 7  22497726.391 7 117151566.44607         0.000          46.700  
  23860144.680 7  23860146.281 7 124246030.52307         0.000          42.200  
  36741667.984 7  36741674.152 7 191323502.90907         0.000          46.000  
  24797770.031 6  24797779.051 7 129128480.83506         0.000          41.100  
  23432248.781 7         0.000   122017881.10107         0.000          44.300  
  24824310.195 7         0.000   129266699.90107         0.000          44.000  
  23877233.594 7         0.000   124335004.76607         0.000          45.800  
 22  6  2  5 29 35.0000000  0 14C01C02C03C04C05C07C10C11C12C13C14C21
                                C23C25
  37424852.500 6  37424856.094 6 194881056.07406         0.000          38.700  
  37426426.547 6  37426426.602 7 194889257.99406         0.000          37.900  
  36707469.008 7  36707469.215 7 191145419.03007         0.000          42.400  
  38516865.492 6  38516869.297 6 200567456.56806         0.000          38.300  
  39127100.000 5         0.000   203745073.06505         0.000          31.800  
  35777678.555 7  35777675.980 7 186303754.82407         0.000          45.300  
  35730377.227 7  35730377.164 7 186057440.61407         0.000          47.000  
  22496651.945 7  22496652.477 7 117145973.77007         0.000          45.800  
  23860546.844 6  23860548.738 7 124248126.19506         0.000          41.400  
  36740813.836 7  36740820.016 7 191319055.13607         0.000          46.100  
  24794043.313 6  24794052.508 7 129109074.31706         0.000          41.100  
  23431307.133 7         0.000   122012978.07807         0.000          44.100  
  24823193.375 7         0.000   129260883.67207         0.000          43.300  
  23878378.141 7         0.000   124340962.76107         0.000          45.700  
 22  6  2  5 29 40.0000000  0 14C01C02C03C04C05C07C10C11C12C13C14C21
                                C23C25
  37424135.711 6  37424139.352 6 194877324.26006         0.000          38.400  
  37425697.820 6  37425697.750 7 194885463.42206         0.000          37.800  
  36706731.563 7  36706732.430 7 191141581.66607         0.000          42.200  
  38516164.742 6  38516168.844 6 200563809.38006         0.000          38.200  
  39126366.508 5  39126369.547 5 203741251.58205         0.000          32.300  
  35777103.125 7  35777100.629 7 186300758.53007         0.000          45.300  
  35729455.883 7  35729455.938 7 186052643.52507         0.000          46.600  
  22495577.609 7  22495578.711 7 117140382.30407         0.000          45.200  
  23860949.594 6  23860951.469 7 124250223.05406         0.000          41.700  
  36739960.141 7  36739966.551 7 191314610.78007         0.000          46.000  
  24790316.031 6  24790325.941 7 129089668.36406         0.000          40.600  
  23430368.914 7         0.000   122008088.46407         0.000          43.700  
  24822078.555 7         0.000   129255080.12507         0.000          43.000  
  23879523.633 7         0.000   124346928.69007         0.000          45.700  
 22  6  2  5 29 45.0000000  0 14C01C02C03C04C05C07C10C11C12C13C14C21
                                C23C25
  37423419.578 6  37423422.969 6 194873594.21406         0.000          38.300  
  37424969.422 6  37424969.547 7 194881670.64906         0.000          38.000  
  36705995.539 7  36705995.660 7 191137746.13907         0.000          42.700  
  38515464.461 6  38515468.586 6 200560163.92106         0.000          38.000  
  39125633.195 5  39125635.789 5 203737431.31205         0.000          31.900  
  35776528.719 7  35776525.902 7 186297766.96307         0.000          46.300  
  35728535.266 7  35728535.566 7 186047850.83707         0.000          47.200  
  22494504.727 7  22494505.430 7 117134793.56907         0.000          45.400  
  23861352.922 6  23861354.699 7 124252322.58406         0.000          41.900  
  36739107.977 7  36739114.094 7 191310171.38507         0.000          46.700  
  24786589.773 6  24786599.285 7 129070264.51406         0.000          38.600  
  23429432.523 7         0.000   122003213.81407         0.000          42.900  
  24820966.727 7         0.000   129249290.72807         0.000          43.100  
  23880671.086 7         0.000   124352904.11607         0.000          45.600  
 22  6  2  5 29 50.0000000  0 14C01C02C03C04C05C07C10C11C12C13C14C21
                                C23C25
  37422702.930 6  37422706.859 7 194869865.01406         0.000          38.500  
  37424241.352 6  37424241.492 7 194877878.69506         0.000          37.800  
  36705258.820 7  36705259.426 7 191133911.50207         0.000          42.500  
  38514764.664 6  38514768.750 6 200556519.36306         0.000          38.300  
  39124900.047 5         0.000   203733613.27105         0.000          33.200  
  35775955.000 7  35775952.215 7 186294779.17707         0.000          47.000  
  35727615.523 7  35727615.836 7 186043061.58607         0.000          46.800  
  22493431.711 7  22493432.430 7 117129206.65007         0.000          45.700  
  23861756.320 6  23861758.070 7 124254423.95506         0.000          41.800  
  36738256.273 7  36738262.172 7 191305736.07907         0.000          46.400  
  24782863.516 6  24782873.320 7 129050861.87906         0.000          39.800  
  23428498.953 7         0.000   121998353.23807         0.000          43.200  
  24819857.563 7         0.000   129243514.65607         0.000          43.000  
  23881819.953 7         0.000   124358888.11007         0.000          46.300  
 22  6  2  5 29 55.0000000  0 14C01C02C03C04C05C07C10C11C12C13C14C21
                                C23C25
  37421987.430 6  37421991.027 6 194866137.49906         0.000          38.600  
  37423513.766 6  37423513.500 7 194874088.38706         0.000          38.200  
  36704523.164 7  36704523.277 7 191130078.53707         0.000          42.600  
  38514065.430 6  38514069.152 6 200552876.48206         0.000          38.400  
  39124165.773 5  39124168.574 5 203729796.12705         0.000          31.800  
  35775382.094 7  35775379.141 7 186291795.97407         0.000          46.700  
  35726696.758 7  35726696.781 7 186038276.60507         0.000          46.800  
  22492359.078 7  22492360.082 7 117123622.34207         0.000          45.200  
  23862160.430 6  23862162.230 7 124256527.93706         0.000          41.900  
  36737405.414 7  36737411.590 7 191301305.58207         0.000          47.100  
  24779137.352 6  24779147.473 7 129031461.24506         0.000          39.200  
  23427568.680 7         0.000   121993507.50007         0.000          44.000  
  24818750.883 7         0.000   129237752.66007         0.000          43.200  
  23882971.172 7         0.000   124364881.45807         0.000          46.600  
 22  6  2  5 30  0.0000000  0 13C01C02C03C04C07C10C11C12C13C14C21C23
                                C25
  37421271.844 6  37421275.539 6 194862411.05206         0.000          38.300  
  37422786.328 6  37422785.824 7 194870299.10806         0.000          38.200  
  36703787.133 7  36703787.281 7 191126246.62907         0.000          42.400  
  38513365.977 6  38513369.746 6 200549234.64406         0.000          37.900  
  35774809.758 7  35774807.176 7 186288816.75207         0.000          46.000  
  35725778.125 7  35725778.422 7 186033495.24907         0.000          46.600  
  22491287.117 7  22491287.738 7 117118040.00507         0.000          44.900  
  23862564.445 6  23862566.727 7 124258633.85606         0.000          41.500  
  36736555.453 7  36736561.422 7 191296879.27607         0.000          46.400  
  24775411.680 6  24775422.020 7 129012061.98806         0.000          38.600  
  23426641.055 7         0.000   121988676.01207         0.000          45.100  
  24817647.055 7         0.000   129232004.13207         0.000          42.400  
  23884123.656 7         0.000   124370883.50907         0.000          46.200  
 22  6  2  5 30  5.0000000  0 14C01C02C03C04C05C07C10C11C12C13C14C21
                                C23C25
  37420556.070 6  37420560.027 7 194858685.27206         0.000          38.100  
  37422058.461 6  37422058.305 7 194866510.46406         0.000          37.900  
  36703050.852 7  36703051.574 7 191122415.45207         0.000          42.300  
  38512666.523 6  38512670.602 6 200545593.51306         0.000          38.500  
  39122700.992 5         0.000   203722158.31605         0.000          34.200  
  35774238.609 7  35774235.715 7 186285841.09607         0.000          45.800  
  35724860.914 7  35724860.875 7 186028717.20407         0.000          46.200  
  22490215.758 7  22490215.734 7 117112459.26507         0.000          45.500  
  23862969.258 6  23862971.359 7 124260741.39906         0.000          41.200  
  36735706.250 7  36735712.125 7 191292456.83307         0.000          46.900  
  24771686.805 6  24771696.992 7 128992663.84306         0.000          38.100  
  23425715.734 7         0.000   121983858.40307         0.000          44.900  
  24816545.617 7         0.000   129226268.66907         0.000          43.500  
  23885277.984 7         0.000   124376893.92207         0.000          46.400  
 22  6  2  5 30 10.0000000  0 14C01C02C03C04C05C07C10C11C12C13C14C21
                                C23C25
  37419840.875 6  37419844.797 6 194854960.68706         0.000          38.100  
  37421330.844 6  37421331.047 7 194862722.97506         0.000          38.300  
  36702315.398 7  36702316.016 7 191118585.48107         0.000          42.400  
  38511967.117 6  38511971.789 6 200541953.59006         0.000          38.300  
  39121968.086 5  39121970.352 5 203718342.39505         0.000          32.600  
  35773667.820 7  35773664.891 7 186282869.57907         0.000          45.600  
  35723943.836 7  35723944.055 7 186023942.89607         0.000          46.100  
  22489144.266 7  22489144.531 7 117106880.67807         0.000          45.700  
  23863374.234 6  23863376.375 7 124262851.07706         0.000          41.500  
  36734857.484 7  36734863.805 7 191288038.73507         0.000          46.600  
  24767961.836 6  24767971.797 7 128973267.22006         0.000          38.400  
  23424792.930 7         0.000   121979055.21107         0.000          44.400  
  24815446.992 7         0.000   129220546.83807         0.000          43.000  
  23886434.063 7         0.000   124382913.18007         0.000          46.300  
 22  6  2  5 30 15.0000000  0 14C01C02C03C04C05C07C10C11C12C13C14C21
                                C23C25
  37419126.328 6  37419129.922 7 194851237.75606         0.000          38.600  
  37420604.023 6  37420603.512 7 194858937.10806         0.000          38.200  
  36701580.625 7  36701581.047 7 191114757.15807         0.000          42.400  
  38511268.492 6  38511272.996 6 200538315.27506         0.000          37.600  
  39121236.039 5  39121237.891 5 203714529.06605         0.000          32.500  
  35773098.266 7  35773095.418 7 186279902.65007         0.000          46.400  
  35723027.391 7  35723027.953 7 186019172.85407         0.000          46.100  
  22488073.891 7  22488074.004 7 117101304.66107         0.000          46.100  
  23863780.047 7  23863782.117 7 124264963.31407         0.000          42.100  
  36734010.164 7  36734016.051 7 191283625.44107         0.000          46.400  
  24764237.422 6  24764247.320 7 128953872.67106         0.000          39.000  
  23423873.867 7         0.000   121974266.83907         0.000          44.000  
  24814350.641 6         0.000   129214839.02906         0.000          41.900  
  23887591.344 7         0.000   124388941.70607         0.000          46.000  
 22  6  2  5 30 20.0000000  0 14C01C02C03C04C05C07C10C11C12C13C14C21
                                C23C25
  37418411.422 6  37418415.102 7 194847516.45206         0.000          38.600  
  37419876.984 6  37419877.008 7 194855152.84106         0.000          38.300  
  36700846.109 7  36700846.258 7 191110930.48507         0.000          42.400  
  38510569.859 6  38510574.574 6 200534678.62306         0.000          38.000  
  39120503.633 5  39120505.691 5 203710716.34105         0.000          33.100  
  35772528.953 7  35772526.352 7 186276940.29807         0.000          45.300  
  35722112.203 7  35722112.730 7 186014407.03507         0.000          45.300  
  22487003.586 7  22487003.461 7 117095731.20507         0.000          46.000  
  23864186.180 6  23864188.207 7 124267078.14506         0.000          41.600  
  36733163.750 7  36733169.500 7 191279216.94007         0.000          47.100  
  24760513.469 6  24760523.305 7 128934480.13906         0.000          39.100  
  23422956.672 7         0.000   121969493.32807         0.000          44.700  
  24813256.969 7         0.000   129209145.29007         0.000          42.600  
  23888751.352 7         0.000   124394979.47007         0.000          45.400  
 22  6  2  5 30 25.0000000  0 14C01C02C03C04C05C07C10C11C12C13C14C21
                                C23C25
  37417697.086 6  37417700.781 6 194843796.92006         0.000          38.300  
  37419150.633 6  37419150.641 7 194851370.37406         0.000          38.300  
  36700110.836 7  36700111.590 7 191107105.66607         0.000          42.500  
  38509872.117 6  38509876.527 6 200531043.84106         0.000          37.600  
  39119773.039 5         0.000   203706904.16405         0.000          31.900  
  35771961.242 7  35771958.613 7 186273982.68007         0.000          45.500  
  35721197.883 7  35721198.301 7 186009645.62407         0.000          45.500  
  22485933.508 7  22485933.781 7 117090160.55107         0.000          46.300  
  23864593.258 7  23864594.938 7 124269195.74207         0.000          42.300  
  36732317.750 7  36732323.906 7 191274813.44907         0.000          46.500  
  24756789.805 6  24756799.730 7 128915089.80506         0.000          39.600  
  23422042.727 7         0.000   121964734.87307         0.000          43.700  
  24812166.711 7         0.000   129203465.72907         0.000          42.100  
  23889912.539 7         0.000   124401026.70807         0.000          45.400  
 22  6  2  5 30 30.0000000  0 14C01C02C03C04C05C07C10C11C12C13C14C21
                                C23C25
  37416983.445 6  37416986.793 6 194840079.06506         0.000          38.300  
  37418424.734 6  37418424.570 7 194847589.53906         0.000          38.300  
  36699377.180 7  36699377.457 7 191103282.51607         0.000          42.400  
  38509175.078 6  38509178.656 6 200527410.64506         0.000          38.100  
  39119040.820 5  39119043.148 5 203703096.22505         0.000          32.500  
  35771394.352 7  35771391.426 7 186271029.64307         0.000          46.500  
  35720284.406 7  35720284.805 7 186004888.46307         0.000          45.800  
  22484864.594 7  22484864.516 7 117084592.46007         0.000          46.400  
  23865000.117 7  23865002.195 7 124271315.89907         0.000          43.100  
  36731473.047 7  36731479.172 7 191270414.71907         0.000          46.600  
  24753066.914 6  24753076.523 7 128895701.61006         0.000          39.800  
  23421132.273 7         0.000   121959991.25707         0.000          44.300  
  24811078.594 7         0.000   129197800.25207         0.000          42.800  
  23891075.758 7         0.000   124407083.17407         0.000          45.500  
 22  6  2  5 30 35.0000000  0 14C01C02C03C04C05C07C10C11C12C13C14C21
                                C23C25
  37416269.984 6  37416273.223 7 194836362.44606         0.000          38.900  
  37417698.883 6  37417698.766 7 194843809.87106         0.000          38.300  
  36698642.844 7  36698643.582 7 191099460.61207         0.000          42.200  
  38508476.883 6  38508481.395 6 200523778.75306         0.000          38.100  
  39118310.047 5  39118311.715 5 203699289.13905         0.000          33.000  
  35770827.797 7  35770824.969 7 186268080.78207         0.000          45.600  
  35719371.844 7  35719371.805 7 186000135.08307         0.000          45.700  
  22483795.547 7  22483795.594 7 117079026.54207         0.000          46.200  
  23865407.953 7  23865409.738 7 124273438.25507         0.000          43.000  
  36730629.625 7  36730635.418 7 191266020.35607         0.000          47.100  
  24749343.445 6  24749353.379 7 128876315.06906         0.000          39.400  
  23420223.953 7         0.000   121955262.10407         0.000          44.400  
  24809993.297 7         0.000   129192148.41507         0.000          42.200  
  23892240.813 7         0.000   124413148.47907         0.000          45.700  
 22  6  2  5 30 40.0000000  0 14C01C02C03C04C05C07C10C11C12C13C14C21
                                C23C25
  37415556.703 6  37415559.563 7 194832646.96206         0.000          39.000  
  37416973.273 6  37416973.133 7 194840031.35906         0.000          38.200  
  36697909.094 7  36697910.000 7 191095639.88307         0.000          42.300  
  38507780.250 6  38507784.004 6 200520148.01606         0.000          38.400  
  39117578.266 5  39117581.000 5 203695483.17705         0.000          33.100  
  35770262.297 7  35770259.629 7 186265136.00907         0.000          45.900  
  35718459.555 7  35718459.914 7 185995385.52207         0.000          46.200  
  22482727.188 7  22482727.160 7 117073462.72907         0.000          46.800  
  23865816.461 7  23865817.805 7 124275562.68507         0.000          43.100  
  36729786.133 7  36729792.254 7 191261630.32807         0.000          46.700  
  24745621.430 6  24745630.801 7 128856930.09906         0.000          40.000  
  23419318.352 7         0.000   121950547.28907         0.000          44.900  
  24808910.172 7         0.000   129186510.13807         0.000          42.500  
  23893406.953 7         0.000   124419222.50607         0.000          45.800  
 22  6  2  5 30 45.0000000  0 14C01C02C03C04C05C07C10C11C12C13C14C21
                                C23C25
  37414842.617 6  37414846.301 7 194828932.30606         0.000          38.900  
  37416247.945 6  37416247.629 7 194836253.65806         0.000          38.400  
  36697175.313 7  36697176.254 7 191091819.97607         0.000          42.200  
  38507083.258 6  38507086.949 6 200516518.07606         0.000          38.200  
  39116847.984 5  39116850.320 5 203691678.05105         0.000          32.200  
  35769697.406 7  35769694.824 7 186262194.97607         0.000          46.400  
  35717547.977 7  35717548.453 7 185990639.33307         0.000          46.100  
  22481658.867 7  22481659.379 7 117067900.63107         0.000          46.200  
  23866224.719 7  23866226.125 7 124277688.90307         0.000          42.200  
  36728943.750 7  36728949.961 7 191257244.28807         0.000          46.400  
  24741898.828 6  24741907.863 6 128837546.38306         0.000          40.800  
  23418415.836 7         0.000   121945846.51807         0.000          44.500  
  24807829.961 7         0.000   129180885.09807         0.000          43.200  
  23894575.313 7         0.000   124425304.95907         0.000          46.300  
 22  6  2  5 30 50.0000000  0 13C01C02C03C04C07C10C11C12C13C14C21C23
                                C25
  37414129.313 6  37414133.355 7 194825218.42506         0.000          38.700  
  37415522.531 6  37415522.285 7 194832476.63506         0.000          38.200  
  36696441.859 7  36696442.668 7 191088000.86107         0.000          42.300  
  38506386.141 6  38506390.027 6 200512888.89606         0.000          38.400  
  35769133.156 7  35769130.617 7 186259257.66007         0.000          46.400  
  35716637.563 7  35716637.508 7 185985896.57407         0.000          45.500  
  22480591.008 7  22480591.641 7 117062340.29007         0.000          45.800  
  23866633.203 7  23866634.934 7 124279816.86507         0.000          43.400  
  36728102.039 7  36728108.473 7 191252862.18307         0.000          46.100  
  24738177.063 6  24738186.125 6 128818163.96406         0.000          40.400  
  23417515.867 7         0.000   121941159.76407         0.000          43.800  
  24806752.711 7         0.000   129175273.22307         0.000          43.400  
  23895744.883 7         0.000   124431395.73107         0.000          46.400  
 22  6  2  5 30 55.0000000  0 14C01C02C03C04C05C07C10C11C12C13C14C21
                                C23C25
  37413416.195 6  37413420.203 6 194821506.47906         0.000          39.000  
  37414797.742 6  37414797.512 7 194828701.59006         0.000          38.200  
  36695709.039 7  36695709.805 7 191084183.72107         0.000          42.400  
  38505689.563 6  38505693.473 6 200509261.68406         0.000          38.200  
  39115387.063 5  39115389.813 5 203684073.23405         0.000          32.500  
  35768570.414 7  35768567.680 7 186256325.21407         0.000          46.300  
  35715727.398 7  35715727.750 7 185981158.31507         0.000          46.100  
  22479523.703 7  22479524.363 7 117056782.81807         0.000          46.400  
  23867042.609 7  23867044.082 7 124281947.72507         0.000          43.600  
  36727261.633 7  36727267.820 7 191248485.12007         0.000          46.300  
  24734454.898 6  24734464.441 6 128798783.92606         0.000          39.800  
  23416618.883 7         0.000   121936488.18307         0.000          44.000  
  24805677.742 7         0.000   129169675.70707         0.000          42.900  
  23896916.523 7         0.000   124437496.03607         0.000          46.700  
 22  6  2  5 31  0.0000000  0 14C01C02C03C04C05C07C10C11C12C13C14C21
                                C23C25
  37412703.664 6  37412707.738 6 194817795.39406         0.000          38.600  
  37414072.914 6  37414072.738 7 194824927.37606         0.000          38.200  
  36694976.000 7  36694976.773 7 191080367.46607         0.000          42.400  
  38504992.695 6  38504997.039 6 200505635.38806         0.000          38.200  
  39114656.484 5  39114660.426 5 203680271.59605         0.000          32.000  
  35768007.961 7  35768005.117 7 186253396.62307         0.000          46.700  
  35714817.906 7  35714818.066 7 185976423.55907         0.000          45.700  
  22478457.430 7  22478457.613 7 117051227.14907         0.000          46.900  
  23867451.883 7  23867453.770 7 124284080.39507         0.000          43.600  
  36726422.094 7  36726428.039 7 191244112.09907         0.000          46.500  
  24730733.422 6  24730742.648 6 128779405.26206         0.000          39.100  
  23415724.547 7         0.000   121931830.72507         0.000          44.300  
  24804605.094 7         0.000   129164091.46707         0.000          43.700  
  23898089.586 7         0.000   124443604.71207         0.000          47.000  
 22  6  2  5 31  5.0000000  0 14C01C02C03C04C05C07C10C11C12C13C14C21
                                C23C25
  37411991.422 6  37411995.121 7 194814085.23806         0.000          39.100  
  37413347.750 6  37413348.094 7 194821154.00706         0.000          38.300  
  36694243.805 7  36694244.047 7 191076552.12707         0.000          42.500  
  38504297.141 6  38504300.844 6 200502009.91806         0.000          38.100  
  39113927.117 5         0.000   203676470.38305         0.000          32.900  
  35767445.852 7  35767443.383 7 186250471.83507         0.000          46.400  
  35713909.477 7  35713909.445 7 185971692.26707         0.000          46.600  
  22477390.703 7  22477390.992 7 117045673.33107         0.000          47.000  
  23867862.141 7  23867863.934 7 124286214.90607         0.000          43.300  
  36725583.000 7  36725588.809 7 191239743.10607         0.000          46.300  
  24727012.625 6  24727021.715 6 128760027.98106         0.000          40.600  
  23414832.305 7         0.000   121927187.37407         0.000          44.400  
  24803535.102 7         0.000   129158520.49807         0.000          43.500  
  23899264.211 7         0.000   124449721.81307         0.000          46.400  
 22  6  2  5 31 10.0000000  0 14C01C02C03C04C05C07C10C11C12C13C14C21
                                C23C25
  37411279.188 6  37411282.777 6 194810376.28206         0.000          38.600  
  37412623.680 6  37412623.664 7 194817381.88106         0.000          37.900  
  36693511.164 7  36693511.816 7 191072738.07407         0.000          42.500  
  38503600.469 6  38503605.039 6 200498385.77406         0.000          38.100  
  39113198.000 5  39113199.883 5 203672670.30905         0.000          32.200  
  35766885.219 7  35766882.617 7 186247551.29107         0.000          45.700  
  35713001.797 7  35713001.855 7 185966964.92707         0.000          46.200  
  22476324.781 7  22476324.973 7 117040121.72607         0.000          46.400  
  23868272.555 7  23868274.379 7 124288351.66707         0.000          43.700  
  36724744.852 7  36724750.848 7 191235378.49207         0.000          46.700  
  24723292.023 6  24723300.996 6 128740652.48506         0.000          40.300  
  23413943.859 7         0.000   121922558.52207         0.000          44.200  
  24802468.000 7         0.000   129152963.21107         0.000          43.400  
  23900440.609 7         0.000   124455847.69607         0.000          45.900  
 22  6  2  5 31 15.0000000  0 14C01C02C03C04C05C07C10C11C12C13C14C21
                                C23C25
  37410567.094 6  37410570.898 6 194806668.36106         0.000          39.000  
  37411899.094 6  37411899.555 7 194813610.73506         0.000          37.900  
  36692778.555 7  36692779.418 7 191068925.03807         0.000          42.600  
  38502905.328 6  38502909.258 6 200494762.63706         0.000          37.800  
  39112469.000 5  39112470.844 5 203668869.78605         0.000          32.000  
  35766324.789 7  35766322.340 7 186244634.68507         0.000          45.300  
  35712094.695 7  35712094.805 7 185962241.16007         0.000          46.100  
  22475258.844 7  22475259.277 7 117034572.03707         0.000          46.600  
  23868683.422 7  23868684.805 7 124290490.40607         0.000          42.600  
  36723907.195 7  36723913.250 7 191231018.01507         0.000          46.000  
  24719569.992 6  24719580.543 6 128721278.51606         0.000          39.700  
  23413057.844 7         0.000   121917943.91607         0.000          44.700  
  24801403.164 7         0.000   129147419.30107         0.000          42.200  
  23901618.695 7         0.000   124461982.09607         0.000          45.800  
 22  6  2  5 31 20.0000000  0 14C01C02C03C04C05C07C10C11C12C13C14C21
                                C23C25
  37409854.727 6  37409859.109 6 194802961.25906         0.000          38.700  
  37411175.781 6  37411175.469 7 194809840.33006         0.000          37.900  
  36692046.734 7  36692047.461 7 191065112.84107         0.000          42.500  
  38502209.586 6  38502213.543 6 200491140.31206         0.000          37.900  
  39111738.211 5  39111741.617 5 203665073.00705         0.000          32.800  
  35765765.477 7  35765763.215 7 186241721.79207         0.000          45.400  
  35711187.852 7  35711187.953 7 185957520.80507         0.000          45.800  
  22474193.750 7  22474193.984 7 117029024.06607         0.000          47.500  
  23869093.977 7  23869095.801 7 124292630.90707         0.000          42.900  
  36723070.578 7  36723076.668 7 191226661.48407         0.000          45.700  
  24715850.969 6  24715860.031 6 128701905.86406         0.000          40.200  
  23412173.734 7         0.000   121913343.35807         0.000          43.700  
  24800341.258 7         0.000   129141888.63007         0.000          43.000  
  23902798.836 7         0.000   124468124.82707         0.000          46.000  
 22  6  2  5 31 25.0000000  0 14C01C02C03C04C05C07C10C11C12C13C14C21
                                C23C25
  37409143.297 6  37409147.188 6 194799254.43706         0.000          38.500  
  37410451.273 6  37410451.273 7 194806070.22206         0.000          38.000  
  36691314.867 7  36691315.484 7 191061300.94007         0.000          42.600  
  38501513.742 6  38501518.008 6 200487518.22606         0.000          38.100  
  39111009.102 5  39111012.039 5 203661274.54505         0.000          31.800  
  35765206.984 7  35765204.332 7 186238812.16707         0.000          46.500  
  35710281.984 7  35710282.246 7 185952803.37807         0.000          46.100  
  22473128.398 7  22473128.766 7 117023477.35407         0.000          47.000  
  23869505.227 7  23869507.094 7 124294772.61907         0.000          43.100  
  36722234.617 7  36722240.762 7 191222308.43407         0.000          45.500  
  24712130.961 6  24712140.168 6 128682534.08906         0.000          40.000  
  23411292.969 7         0.000   121908756.34307         0.000          43.300  
  24799281.523 7         0.000   129136370.59807         0.000          42.600  
  23903979.898 7         0.000   124474275.30107         0.000          47.100  
 22  6  2  5 31 30.0000000  0 13C01C02C03C04C07C10C11C12C13C14C21C23
                                C25
  37408432.211 6  37408435.633 6 194795548.84506         0.000          38.700  
  37409728.133 6  37409727.539 7 194802301.28206         0.000          37.900  
  36690582.984 7  36690583.641 7 191057490.29807         0.000          42.600  
  38500818.328 6  38500822.488 6 200483897.45706         0.000          37.700  
  35764648.719 7  35764646.469 7 186235906.69107         0.000          45.600  
  35709377.023 7  35709376.863 7 185948089.76307         0.000          45.900  
  22472063.406 7  22472063.898 7 117017932.77607         0.000          47.600  
  23869917.039 7  23869918.754 7 124296916.57307         0.000          42.800  
  36721399.414 7  36721405.586 7 191217959.70107         0.000          46.200  
  24708411.078 6  24708420.336 6 128663164.04006         0.000          39.600  
  23410414.617 7         0.000   121904183.84207         0.000          43.000  
  24798224.492 7         0.000   129130866.24407         0.000          43.500  
  23905162.727 7         0.000   124480434.49507         0.000          46.600  
 22  6  2  5 31 35.0000000  0 14C01C02C03C04C05C07C10C11C12C13C14C21
                                C23C25
  37407720.547 6  37407724.230 7 194791845.12706         0.000          38.800  
  37409004.477 6  37409004.219 7 194798534.23406         0.000          38.100  
  36689851.867 7  36689852.242 7 191053681.57507         0.000          42.600  
  38500123.773 6  38500127.516 6 200480278.58106         0.000          38.200  
  39109552.773 5         0.000   203653685.27105         0.000          32.400  
  35764092.047 7  35764089.223 7 186233006.13707         0.000          46.300  
  35708472.719 7  35708472.590 7 185943380.73607         0.000          46.100  
  22470998.914 7  22470999.977 7 117012391.10307         0.000          47.500  
  23870329.219 7  23870331.035 7 124299063.38507         0.000          43.200  
  36720565.078 7  36720571.289 7 191213616.00807         0.000          46.600  
  24704691.141 6  24704701.098 6 128643796.51006         0.000          39.600  
  23409539.492 7         0.000   121899626.42107         0.000          43.200  
  24797170.250 7         0.000   129125376.18407         0.000          43.100  
  23906346.977 7         0.000   124486603.08007         0.000          46.400  
 22  6  2  5 31 40.0000000  0 13C01C02C03C04C07C10C11C12C13C14C21C23
                                C25
  37407009.750 6  37407013.273 7 194788142.09506         0.000          38.900  
  37408280.547 6  37408280.691 7 194794767.81406         0.000          38.000  
  36689120.086 7  36689120.805 7 191049873.53107         0.000          42.300  
  38499428.523 6  38499433.008 6 200476660.31706         0.000          37.800  
  35763535.352 7  35763533.020 7 186230109.13307         0.000          46.000  
  35707568.859 7  35707569.078 7 185938674.93707         0.000          46.000  
  22469935.781 7  22469935.918 7 117006850.98007         0.000          47.900  
  23870741.617 7  23870743.430 7 124301211.84307         0.000          42.500  
  36719732.117 7  36719737.875 7 191209276.13507         0.000          46.600  
  24700972.586 6  24700982.316 6 128624430.17606         0.000          40.800  
  23408667.063 7         0.000   121895082.96007         0.000          43.600  
  24796117.852 7         0.000   129119899.16507         0.000          42.600  
  23907533.477 7         0.000   124492779.73107         0.000          46.600  
 22  6  2  5 31 45.0000000  0 13C01C02C03C04C07C10C11C12C13C14C21C23
                                C25
  37406298.586 6  37406302.441 6 194784440.62606         0.000          38.800  
  37407557.570 6  37407557.680 7 194791003.00306         0.000          37.800  
  36688389.258 7  36688390.082 7 191046067.11107         0.000          42.400  
  38498734.102 6  38498738.113 6 200473043.70606         0.000          37.800  
  35762979.906 7  35762977.410 7 186227216.69207         0.000          46.400  
  35706665.805 7  35706665.961 7 185933973.34207         0.000          46.200  
  22468871.945 8  22468872.324 7 117001313.43708         0.000          48.000  
  23871155.133 7  23871156.652 7 124303362.85007         0.000          43.200  
  36718899.625 7  36718905.250 7 191204940.95707         0.000          46.300  
  24697253.891 6  24697263.777 7 128605066.04806         0.000          40.500  
  23407797.438 7         0.000   121890554.33807         0.000          43.600  
  24795068.992 7         0.000   129114436.13307         0.000          42.300  
  23908721.297 7         0.000   124498965.46907         0.000          46.100  
 22  6  2  5 31 50.0000000  0 14C01C02C03C04C05C07C10C11C12C13C14C21
                                C23C25
  37405587.984 6  37405591.520 6 194780739.77006         0.000          38.800  
  37406835.227 6  37406834.762 7 194787238.72906         0.000          38.000  
  36687658.586 7  36687659.152 7 191042261.31307         0.000          42.300  
  38498039.305 6  38498044.016 6 200469427.71406         0.000          37.700  
  39107366.953 5  39107369.813 5 203642308.23905         0.000          32.400  
  35762425.375 7  35762422.715 7 186224327.81607         0.000          47.000  
  35705764.078 7  35705763.691 7 185929275.01907         0.000          46.000  
  22467809.180 7  22467809.121 7 116995777.39907         0.000          47.700  
  23871568.641 7  23871570.148 7 124305515.47707         0.000          43.200  
  36718067.641 7  36718073.613 7 191200609.55307         0.000          47.000  
  24693535.734 6  24693545.453 7 128585703.16106         0.000          40.000  
  23406930.563 7         0.000   121886039.59507         0.000          44.300  
  24794022.719 7         0.000   129108986.12907         0.000          42.300  
  23909910.828 7         0.000   124505159.22907         0.000          46.700  
 22  6  2  5 31 55.0000000  0 14C01C02C03C04C05C07C10C11C12C13C14C21
                                C23C25
  37404877.234 6  37404881.191 7 194777039.13706         0.000          38.700  
  37406112.031 6  37406111.988 7 194783474.61906         0.000          38.000  
  36686927.531 7  36686928.129 7 191038455.73307         0.000          42.400  
  38497345.516 6  38497349.516 6 200465811.90806         0.000          37.900  
  39106639.141 5         0.000   203638517.70405         0.000          32.200  
  35761871.508 7  35761868.422 7 186221442.08907         0.000          46.500  
  35704862.234 7  35704862.090 7 185924579.52007         0.000          46.100  
  22466746.008 7  22466746.547 7 116990242.52307         0.000          47.900  
  23871981.953 7  23871983.828 7 124307669.24307         0.000          42.600  
  36717236.820 7  36717242.488 7 191196281.47407         0.000          46.400  
  24689816.836 6  24689827.102 6 128566341.04006         0.000          39.000  
  23406065.883 7         0.000   121881538.29407         0.000          44.300  
  24792978.414 7         0.000   129103548.68807         0.000          42.400  
  23911101.367 7         0.000   124511360.60507         0.000          46.000  
 22  6  2  5 32  0.0000000  0 14C01C02C03C04C05C07C10C11C12C13C14C21
                                C23C25
  37404167.234 6  37404170.629 7 194773339.71806         0.000          38.600  
  37405389.430 6  37405389.547 7 194779711.68406         0.000          37.700  
  36686197.180 7  36686197.703 7 191034651.40907         0.000          42.400  
  38496651.102 6  38496655.297 6 200462197.35406         0.000          38.400  
  39105910.422 5  39105913.656 5 203634727.53205         0.000          31.000  
  35761318.023 7  35761314.875 7 186218560.53007         0.000          46.300  
  35703961.250 7  35703961.246 7 185919887.89407         0.000          46.200  
  22465683.484 8  22465683.758 7 116984709.78408         0.000          48.200  
  23872395.969 7  23872398.066 7 124309825.27107         0.000          43.100  
  36716406.313 7  36716411.832 7 191191957.72807         0.000          46.700  
  24686099.375 6  24686109.273 7 128546980.77606         0.000          40.300  
  23405203.828 7         0.000   121877051.50307         0.000          44.600  
  24791937.156 7         0.000   129098124.88307         0.000          43.300  
  23912294.086 7         0.000   124517570.63507         0.000          45.800  
 22  6  2  5 32  5.0000000  0 14C01C02C03C04C05C07C10C11C12C13C14C21
                                C23C25
  37403456.945 6  37403460.668 7 194769641.56406         0.000          38.600  
  37404667.016 6  37404667.137 7 194775950.06206         0.000          37.500  
  36685466.469 7  36685467.473 7 191030848.34407         0.000          42.300  
  38495957.336 6  38495961.352 6 200458584.05106         0.000          38.300  
  39105183.188 5  39105186.227 5 203630937.48805         0.000          32.400  
  35760765.484 7  35760762.531 7 186215683.23207         0.000          46.400  
  35703061.133 7  35703060.770 7 185915200.16507         0.000          45.800  
  22464621.766 7  22464621.754 7 116979179.27407         0.000          47.600  
  23872810.625 7  23872812.586 7 124311983.53107         0.000          42.500  
  36715576.594 7  36715582.586 7 191187638.35507         0.000          46.700  
  24682381.922 6  24682391.758 7 128527622.40006         0.000          40.100  
  23404345.320 7         0.000   121872579.23607         0.000          44.600  
  24790897.938 7         0.000   129092714.71807         0.000          43.200  
  23913487.930 7         0.000   124523789.33707         0.000          45.600  
 22  6  2  5 32 10.0000000  0 14C01C02C03C04C05C07C10C11C12C13C14C21
                                C23C25
  37402746.727 6  37402750.500 6 194765944.25806         0.000          39.200  
  37403944.805 6  37403944.809 7 194772189.18506         0.000          37.500  
  36684736.375 7  36684737.109 7 191027046.16907         0.000          42.400  
  38495263.945 6  38495267.961 6 200454971.62806         0.000          38.600  
  39104456.469 5  39104458.762 5 203627149.31805         0.000          32.400  
  35760213.539 7  35760210.738 7 186212809.72407         0.000          46.000  
  35702161.531 7  35702161.152 7 185910515.90807         0.000          46.000  
  22463559.797 7  22463560.125 7 116973650.54607         0.000          47.600  
  23873225.625 7  23873227.480 7 124314143.59407         0.000          43.200  
  36714747.922 7  36714753.820 7 191183323.00507         0.000          46.700  
  24678664.500 6  24678674.605 6 128508265.55606         0.000          40.000  
  23403489.469 7         0.000   121868121.11507         0.000          44.900  
  24789861.539 7         0.000   129087317.81207         0.000          42.700  
  23914683.750 7         0.000   124530016.25707         0.000          45.100  
 22  6  2  5 32 15.0000000  0 14C01C02C03C04C05C07C10C11C12C13C14C21
                                C23C25
  37402036.844 6  37402040.684 7 194762247.93506         0.000          38.700  
  37403223.008 6  37403222.957 7 194768429.32906         0.000          37.600  
  36684006.641 7  36684007.223 7 191023245.04107         0.000          42.600  
  38494570.609 6  38494574.402 6 200451360.21006         0.000          37.700  
  39103728.148 5  39103731.461 5 203623361.26305         0.000          32.300  
  35759662.641 7  35759659.605 7 186209940.21607         0.000          45.500  
  35701262.945 7  35701262.668 7 185905835.30307         0.000          46.300  
  22462498.086 7  22462499.000 7 116968123.81107         0.000          47.000  
  23873640.375 7  23873642.742 7 124316305.67107         0.000          42.700  
  36713920.172 7  36713925.672 7 191179011.79407         0.000          46.300  
  24674948.195 6  24674957.500 6 128488910.36306         0.000          39.400  
  23402635.867 7         0.000   121863677.27307         0.000          44.400  
  24788827.898 7         0.000   129081934.31107         0.000          43.100  
  23915881.242 7         0.000   124536251.58107         0.000          45.100  
 22  6  2  5 32 20.0000000  0 14C01C02C03C04C05C07C10C11C12C13C14C21
                                C23C25
  37401326.938 6  37401331.148 7 194758552.21106         0.000          38.700  
  37402501.094 6  37402501.074 7 194764669.98906         0.000          37.500  
  36683276.859 7  36683277.293 7 191019444.49907         0.000          42.500  
  38493876.984 6  38493880.980 6 200447749.38106         0.000          38.300  
  39103000.391 5  39103003.770 5 203619574.01205         0.000          32.400  
  35759112.508 7  35759109.109 7 186207074.18807         0.000          45.100  
  35700364.703 7  35700364.367 7 185901157.96807         0.000          45.800  
  22461437.258 7  22461437.813 7 116962598.56707         0.000          47.000  
  23874056.242 7  23874058.055 7 124318469.34807         0.000          42.200  
  36713092.703 7  36713098.449 7 191174704.19307         0.000          46.300  
  24671231.273 6  24671240.445 6 128469556.41006         0.000          37.900  
  23401785.242 7         0.000   121859247.28407         0.000          44.000  
  24787796.750 7         0.000   129076563.80007         0.000          43.900  
  23917080.648 7         0.000   124542494.87007         0.000          44.500  
 22  6  2  5 32 25.0000000  0 14C01C02C03C04C05C07C10C11C12C13C14C21
                                C23C25
  37400618.016 6  37400621.480 7 194754857.69206         0.000          38.700  
  37401779.344 6  37401779.164 7 194760911.86306         0.000          37.200  
  36682547.117 7  36682547.965 7 191015645.17607         0.000          42.500  
  38493183.625 6  38493187.738 6 200444139.77306         0.000          38.400  
  39102274.805 5  39102276.887 5 203615788.00905         0.000          32.000  
  35758562.906 7  35758559.453 7 186204212.34307         0.000          45.400  
  35699466.992 7  35699466.785 7 185896484.42507         0.000          46.000  
  22460377.047 7  22460377.121 7 116957075.48507         0.000          47.700  
  23874471.703 7  23874474.090 7 124320635.22107         0.000          42.600  
  36712266.750 7  36712271.938 7 191170400.96407         0.000          46.700  
  24667514.805 6  24667524.086 6 128450204.31306         0.000          39.000  
  23400937.109 7         0.000   121854831.78807         0.000          44.000  
  24786768.039 7         0.000   129071206.84907         0.000          43.500  
  23918281.453 7         0.000   124548746.68907         0.000          44.300  
 22  6  2  5 32 30.0000000  0 13C01C02C03C04C07C10C11C12C13C14C21C23
                                C25
  37399907.844 6  37399912.352 7 194751163.86406         0.000          38.600  
  37401057.625 6  37401057.563 7 194757154.37106         0.000          37.200  
  36681817.430 7  36681818.453 7 191011846.56107         0.000          42.400  
  38492490.539 6  38492494.734 6 200440530.83806         0.000          38.100  
  35758013.719 7  35758010.582 7 186201354.16807         0.000          45.400  
  35698570.461 7  35698570.035 7 185891814.27207         0.000          46.700  
  22459316.297 7  22459316.828 7 116951554.03407         0.000          47.500  
  23874888.422 7  23874889.992 7 124322802.76807         0.000          42.900  
  36711440.766 7  36711446.391 7 191166101.52507         0.000          46.000  
  24663798.805 6  24663807.883 6 128430853.61506         0.000          39.800  
  23400091.867 7         0.000   121850430.25707         0.000          45.500  
  24785741.656 7         0.000   129065863.00907         0.000          43.600  
  23919483.391 7         0.000   124555006.57107         0.000          45.300  
 22  6  2  5 32 35.0000000  0 14C01C02C03C04C05C07C10C11C12C13C14C21
                                C23C25
  37399198.953 6  37399202.676 7 194747470.66006         0.000          38.600  
  37400335.633 6  37400336.305 7 194753397.52106         0.000          37.000  
  36681088.625 7  36681089.082 7 191008048.63807         0.000          42.700  
  38491797.914 6  38491801.836 6 200436922.57106         0.000          38.100  
  39100820.633 5         0.000   203608218.62305         0.000          32.500  
  35757465.531 7  35757462.391 7 186198499.60507         0.000          45.300  
  35697674.063 7  35697673.973 7 185887147.41607         0.000          46.900  
  22458256.344 7  22458256.449 7 116946034.18207         0.000          47.300  
  23875304.844 7  23875306.422 7 124324972.01007         0.000          43.000  
  36710615.805 7  36710621.363 7 191161805.85507         0.000          46.300  
  24660083.266 6  24660092.074 6 128411504.32906         0.000          39.900  
  23399249.586 7         0.000   121846042.67507         0.000          44.500  
  24784718.109 7         0.000   129060532.19907         0.000          44.100  
  23920687.125 7         0.000   124561274.45407         0.000          45.400  
 22  6  2  5 32 40.0000000  0 14C01C02C03C04C05C07C10C11C12C13C14C21
                                C23C25
  37398490.336 6  37398493.934 7 194743778.82806         0.000          38.800  
  37399615.109 6  37399615.031 7 194749641.95706         0.000          37.600  
  36680359.086 7  36680360.027 7 191004252.06907         0.000          42.600  
  38491105.172 6  38491109.008 6 200433315.66206         0.000          37.900  
  39100093.852 5  39100097.313 5 203604436.30505         0.000          32.200  
  35756918.406 7  35756915.086 7 186195649.35407         0.000          45.600  
  35696778.625 7  35696778.398 7 185882484.46907         0.000          46.200  
  22457196.602 7  22457197.047 7 116940516.61407         0.000          47.400  
  23875722.047 7  23875723.395 7 124327143.53807         0.000          42.100  
  36709791.773 7  36709797.238 7 191157514.65407         0.000          46.200  
  24656367.594 6  24656376.898 6 128392157.01206         0.000          40.300  
  23398410.266 7         0.000   121841669.72107         0.000          45.600  
  24783696.586 7         0.000   129055215.13207         0.000          43.700  
  23921892.641 7         0.000   124567550.98707         0.000          45.400  
 22  6  2  5 32 45.0000000  0 14C01C02C03C04C05C07C10C11C12C13C14C21
                                C23C25
  37397781.328 6  37397785.125 7 194740087.85906         0.000          38.300  
  37398893.938 6  37398894.043 7 194745887.26906         0.000          37.600  
  36679630.680 7  36679631.234 7 191000456.37607         0.000          42.700  
  38490412.555 6  38490416.473 6 200429709.63106         0.000          38.200  
  39099369.523 5         0.000   203600658.81305         0.000          31.900  
  35756371.648 7  35756368.594 7 186192802.96607         0.000          45.200  
  35695883.648 7  35695883.602 7 185877825.10707         0.000          46.700  
  22456137.242 7  22456137.859 7 116935000.82607         0.000          47.400  
  23876139.328 7  23876140.754 7 124329316.96807         0.000          42.900  
  36708968.570 7  36708973.977 7 191153227.41707         0.000          46.000  
  24652652.813 6  24652661.863 7 128372811.30206         0.000          40.600  
  23397572.805 7         0.000   121837310.91607         0.000          45.300  
  24782678.328 7         0.000   129049911.26207         0.000          43.300  
  23923099.508 7         0.000   124573835.70107         0.000          45.600  
 22  6  2  5 32 50.0000000  0 14C01C02C03C04C05C07C10C11C12C13C14C21
                                C23C25
  37397072.477 6  37397076.520 6 194736397.49806         0.000          38.600  
  37398172.852 6  37398173.043 7 194742133.14606         0.000          37.400  
  36678901.734 7  36678902.324 7 190996661.34107         0.000          42.600  
  38489719.953 6  38489723.945 6 200426104.21906         0.000          38.600  
  39098643.258 5         0.000   203596879.66705         0.000          30.800  
  35755825.789 7  35755822.391 7 186189960.17607         0.000          45.100  
  35694989.742 7  35694989.340 7 185873169.01507         0.000          46.600  
  22455078.445 7  22455078.980 7 116929486.60907         0.000          47.300  
  23876556.859 7  23876558.555 7 124331492.01007         0.000          42.100  
  36708145.602 7  36708151.328 7 191148943.96707         0.000          45.800  
  24648938.188 6  24648946.852 6 128353466.97906         0.000          40.100  
  23396738.602 7         0.000   121832966.03207         0.000          44.600  
  24781662.117 7         0.000   129044620.43607         0.000          43.500  
  23924307.813 7         0.000   124580128.33207         0.000          45.400  
 22  6  2  5 32 55.0000000  0 14C01C02C03C04C05C07C10C11C12C13C14C21
                                C23C25
  37396364.266 6  37396367.801 7 194732707.66006         0.000          38.700  
  37397451.836 6  37397452.215 7 194738379.53506         0.000          37.700  
  36678172.781 7  36678173.637 7 190992866.81507         0.000          42.700  
  38489027.547 6  38489031.844 6 200422499.31906         0.000          38.300  
  39097916.961 5  39097919.770 5 203593102.86305         0.000          31.600  
  35755280.250 7  35755277.320 7 186187120.85407         0.000          46.100  
  35694096.359 7  35694095.879 7 185868516.08007         0.000          47.100  
  22454019.727 7  22454020.168 7 116923973.86307         0.000          47.200  
  23876975.234 7  23876976.363 7 124333668.56807         0.000          42.400  
  36707323.820 7  36707329.512 7 191144664.06807         0.000          46.000  
  24645223.734 6  24645232.152 6 128334123.86206         0.000          40.400  
  23395906.680 7         0.000   121828634.93907         0.000          44.700  
  24780648.570 7         0.000   129039342.51807         0.000          43.700  
  23925517.648 7         0.000   124586428.78507         0.000          45.200  
 22  6  2  5 33  0.0000000  0 14C01C02C03C04C05C07C10C11C12C13C14C21
                                C23C25
  37395655.453 6  37395659.523 7 194729018.64006         0.000          38.700  
  37396731.430 6  37396731.746 7 194734626.68906         0.000          37.500  
  36677444.297 7  36677445.105 7 190989073.15507         0.000          42.600  
  38488335.633 6  38488340.000 6 200418895.24806         0.000          38.400  
  39097188.578 5  39097193.473 5 203589322.90405         0.000          32.200  
  35754735.664 7  35754732.836 7 186184285.28707         0.000          45.800  
  35693203.211 7  35693202.973 7 185863866.59207         0.000          47.200  
  22452961.289 7  22452961.980 7 116918462.89407         0.000          47.400  
  23877393.500 7  23877394.441 7 124335846.98107         0.000          42.800  
  36706502.805 7  36706508.406 7 191140388.14307         0.000          46.300  
  24641508.828 6  24641517.617 6 128314782.36906         0.000          39.600  
  23395078.164 7         0.000   121824317.98807         0.000          45.000  
  24779637.484 7         0.000   129034077.81107         0.000          43.900  
  23926729.414 7         0.000   124592737.34907         0.000          45.400  
 22  6  2  5 33  5.0000000  0 14C01C02C03C04C05C07C10C11C12C13C14C21
                                C23C25
  37394947.297 6  37394951.480 7 194725331.15306         0.000          38.700  
  37396010.930 6  37396011.145 7 194730875.34606         0.000          37.900  
  36676716.531 7  36676716.941 7 190985281.06307         0.000          42.900  
  38487643.305 6  38487648.371 6 200415292.75706         0.000          38.200  
  39096463.539 5  39096467.289 5 203585546.31405         0.000          32.200  
  35754192.078 7  35754189.168 7 186181454.31307         0.000          46.000  
  35692311.102 7  35692311.000 7 185859221.29007         0.000          47.000  
  22451903.625 7  22451904.086 7 116912954.38507         0.000          46.300  
  23877812.305 7  23877813.547 7 124338027.93807         0.000          42.600  
  36705682.266 7  36705687.914 7 191136116.85907         0.000          45.800  
  24637795.273 6  24637803.555 6 128295443.14806         0.000          39.700  
  23394251.617 7         0.000   121820015.89007         0.000          45.000  
  24778629.156 7         0.000   129028827.00607         0.000          43.300  
  23927942.633 7         0.000   124599054.73307         0.000          45.200  
 22  6  2  5 33 10.0000000  0 14C01C02C03C04C05C07C10C11C12C13C14C21
                                C23C25
  37394239.461 6  37394243.520 7 194721645.00906         0.000          38.600  
  37395290.758 6  37395290.914 7 194727125.32106         0.000          37.900  
  36675988.063 7  36675988.867 7 190981490.27707         0.000          42.600  
  38486952.641 6  38486956.602 6 200411691.57606         0.000          38.600  
  39095738.383 5  39095741.719 5 203581767.02705         0.000          31.300  
  35753648.961 7  35753646.566 7 186178627.59907         0.000          45.700  
  35691419.969 7  35691419.574 7 185854579.93407         0.000          47.000  
  22450846.047 7  22450846.797 7 116907448.13507         0.000          47.000  
  23878231.031 7  23878232.836 7 124340211.23207         0.000          42.200  
  36704862.742 7  36704868.750 7 191131849.96707         0.000          45.500  
  24634081.969 6  24634090.199 6 128276106.03106         0.000          39.600  
  23393428.563 7         0.000   121815728.40807         0.000          45.500  
  24777623.414 7         0.000   129023589.88407         0.000          43.500  
  23929157.531 7         0.000   124605380.67607         0.000          45.100  
 22  6  2  5 33 15.0000000  0 14C01C02C03C04C05C07C10C11C12C13C14C21
                                C23C25
  37393531.680 6  37393535.457 7 194717958.55406         0.000          38.400  
  37394570.805 6  37394570.793 7 194723374.96306         0.000          38.100  
  36675260.328 7  36675260.777 7 190977699.26207         0.000          42.600  
  38486260.727 6  38486265.023 6 200408090.13506         0.000          38.600  
  39095014.141 5         0.000   203577990.30405         0.000          32.900  
  35753106.938 7  35753104.129 7 186175803.58007         0.000          45.900  
  35690528.984 7  35690528.941 7 185849941.01007         0.000          47.300  
  22449788.898 7  22449789.648 7 116901942.56207         0.000          47.100  
  23878650.773 7  23878652.422 7 124342395.28507         0.000          42.600  
  36704043.891 7  36704049.828 7 191127585.93307         0.000          45.800  
  24630367.875 6  24630376.633 6 128256769.40006         0.000          40.100  
  23392607.391 7         0.000   121811453.97407         0.000          46.100  
  24776619.828 7         0.000   129018364.90207         0.000          43.600  
  23930373.648 7         0.000   124611713.60207         0.000          44.700  
 22  6  2  5 33 20.0000000  0 13C01C02C03C04C07C10C11C12C13C14C21C23
                                C25
  37392824.102 6  37392828.254 7 194714273.87506         0.000          38.800  
  37393850.703 6  37393851.016 7 194719626.33806         0.000          37.600  
  36674532.289 7  36674533.438 7 190973910.04907         0.000          42.800  
  38485569.453 6  38485573.613 6 200404490.43806         0.000          37.900  
  35752565.578 7  35752563.008 7 186172984.30107         0.000          46.400  
  35689639.219 7  35689638.813 7 185845306.49707         0.000          47.200  
  22448731.992 7  22448732.754 7 116896439.68307         0.000          47.000  
  23879070.797 7  23879072.457 7 124344582.14707         0.000          42.400  
  36703226.086 7  36703232.184 7 191123326.76207         0.000          45.500  
  24626655.188 6  24626663.965 6 128237435.39606         0.000          39.300  
  23391789.313 7         0.000   121807194.62207         0.000          45.600  
  24775619.641 7         0.000   129013154.04007         0.000          44.200  
  23931591.516 7         0.000   124618055.52107         0.000          44.600  
 22  6  2  5 33 25.0000000  0 14C01C02C03C04C05C07C10C11C12C13C14C21
                                C23C25
  37392116.547 6  37392120.402 7 194710590.21006         0.000          39.000  
  37393130.836 6  37393131.414 7 194715878.73206         0.000          37.500  
  36673805.031 7  36673805.758 7 190970121.86007         0.000          42.500  
  38484878.586 6  38484882.305 6 200400891.76006         0.000          38.400  
  39093563.016 5  39093565.738 5 203570438.62305         0.000          32.000  
  35752024.625 7  35752022.156 7 186170169.02507         0.000          45.900  
  35688749.766 7  35688749.602 7 185840675.64607         0.000          47.000  
  22447675.281 7  22447676.461 8 116890938.79007         0.000          46.700  
  23879491.086 7  23879492.684 7 124346770.98107         0.000          42.300  
  36702408.836 7  36702414.715 7 191119071.70607         0.000          45.900  
  24622942.977 6  24622951.629 7 128218103.18606         0.000          39.600  
  23390973.773 7         0.000   121802949.56207         0.000          45.100  
  24774621.523 7         0.000   129007956.56907         0.000          43.300  
  23932810.859 7         0.000   124624405.71107         0.000          44.200  
 22  6  2  5 33 30.0000000  0 13C01C02C03C04C07C10C11C12C13C14C21C23
                                C25
  37391409.297 6  37391413.152 7 194706906.63206         0.000          38.600  
  37392411.195 6  37392411.652 7 194712131.13506         0.000          37.600  
  36673077.461 7  36673078.438 7 190966333.77407         0.000          42.400  
  38484187.461 6  38484191.531 6 200397293.20206         0.000          38.300  
  35751484.852 7  35751482.281 7 186167356.77207         0.000          46.100  
  35687860.680 7  35687860.906 7 185836047.52607         0.000          46.800  
  22446618.805 7  22446620.281 7 116885438.91407         0.000          45.800  
  23879912.000 7  23879913.484 7 124348960.98607         0.000          43.000  
  36701592.273 7  36701598.285 7 191114819.79107         0.000          46.200  
  24619230.586 6  24619239.262 6 128198771.87006         0.000          39.800  
  23390161.156 7         0.000   121798717.94607         0.000          45.200  
  24773625.953 7         0.000   129002771.54707         0.000          44.300  
  23934031.898 7         0.000   124630763.15807         0.000          44.400  
 22  6  2  5 33 35.0000000  0 13C01C02C03C04C07C10C11C12C13C14C21C23
                                C25
  37390702.516 6  37390706.152 6 194703224.91806         0.000          38.800  
  37391691.961 6  37391692.266 7 194708385.45506         0.000          37.700  
  36672350.203 7  36672351.121 7 190962547.57907         0.000          42.700  
  38483497.086 6  38483500.645 6 200393696.51506         0.000          37.900  
  35750945.477 7  35750943.176 7 186164549.38007         0.000          46.200  
  35686973.078 7  35686972.707 7 185831423.99507         0.000          46.500  
  22445563.414 7  22445564.539 7 116879941.86407         0.000          45.600  
  23880332.797 7  23880334.672 7 124351153.87707         0.000          42.600  
  36700776.750 7  36700782.816 7 191110572.85407         0.000          46.200  
  24615517.883 6  24615527.777 7 128179443.25906         0.000          39.200  
  23389351.492 7         0.000   121794501.50307         0.000          45.800  
  24772632.953 7         0.000   128997600.80107         0.000          44.300  
  23935254.563 7         0.000   124637129.70507         0.000          45.100  
 22  6  2  5 33 40.0000000  0 14C01C02C03C04C05C07C10C11C12C13C14C21
                                C23C25
  37389994.938 6  37389999.137 6 194699543.49606         0.000          38.300  
  37390972.977 6  37390973.016 7 194704640.01106         0.000          37.700  
  36671623.648 7  36671624.090 7 190958761.69707         0.000          42.600  
  38482806.086 6  38482810.121 6 200390100.10906         0.000          37.800  
  39091389.055 5         0.000   203559115.14705         0.000          32.400  
  35750407.445 7  35750404.785 7 186161745.31107         0.000          46.300  
  35686085.578 7  35686085.512 7 185826803.40807         0.000          46.700  
  22444507.992 7  22444509.047 7 116874446.04607         0.000          46.100  
  23880754.141 6  23880755.867 7 124353348.06306         0.000          41.600  
  36699961.750 7  36699967.902 7 191106329.27407         0.000          45.200  
  24611806.844 6  24611816.348 7 128160115.77706         0.000          39.500  
  23388544.070 7         0.000   121790298.65307         0.000          46.200  
  24771642.297 7         0.000   128992442.68707         0.000          43.400  
  23936478.664 7         0.000   124643503.76007         0.000          44.900  
 22  6  2  5 33 45.0000000  0 14C01C02C03C04C05C07C10C11C12C13C14C21
                                C23C25
  37389288.906 6  37389292.004 6 194695862.93706         0.000          38.800  
  37390253.750 6  37390253.996 7 194700895.41006         0.000          37.800  
  36670896.648 7  36670897.348 7 190954976.69907         0.000          42.600  
  38482115.703 6  38482119.809 6 200386504.62106         0.000          38.200  
  39090664.398 5  39090668.469 5 203555343.34105         0.000          32.000  
  35749869.305 7  35749866.887 7 186158945.07107         0.000          45.800  
  35685198.820 7  35685198.746 7 185822186.39607         0.000          46.500  
  22443453.000 7  22443453.801 7 116868952.06307         0.000          46.000  
  23881175.680 7  23881177.680 7 124355544.18307         0.000          42.100  
  36699147.617 7  36699153.789 7 191102089.70507         0.000          45.400  
  24608096.023 6  24608105.570 7 128140790.06906         0.000          39.400  
  23387739.695 7         0.000   121786110.03107         0.000          45.900  
  24770654.859 7         0.000   128987297.84407         0.000          43.600  
  23937703.906 7         0.000   124649885.87507         0.000          45.200  
 22  6  2  5 33 50.0000000  0 13C01C02C03C04C07C10C11C12C13C14C21C23
                                C25
  37388582.055 6  37388585.711 6 194692183.08906         0.000          38.800  
  37389535.422 6  37389534.949 7 194697151.46306         0.000          37.900  
  36670169.844 7  36670170.504 7 190951192.42807         0.000          42.500  
  38481425.039 6  38481429.305 6 200382909.80406         0.000          38.300  
  35749332.320 7  35749329.926 7 186156148.47907         0.000          46.400  
  35684312.891 7  35684312.949 7 185817572.74507         0.000          46.000  
  22442397.828 7  22442399.164 7 116863459.71207         0.000          46.400  
  23881598.539 7  23881599.805 7 124357742.00107         0.000          42.200  
  36698333.977 7  36698340.320 7 191097853.89607         0.000          46.100  
  24604384.398 6  24604394.102 6 128121465.88906         0.000          40.400  
  23386937.656 7         0.000   121781935.40007         0.000          45.800  
  24769669.000 7         0.000   128982166.03807         0.000          43.700  
  23938931.016 7         0.000   124656275.84007         0.000          44.500  
 22  6  2  5 33 55.0000000  0 13C01C02C03C04C07C10C11C12C13C14C21C23
                                C25
  37387875.555 6  37387878.688 6 194688503.50106         0.000          38.800  
  37388815.820 6  37388816.051 7 194693407.80206         0.000          37.500  
  36669443.203 7  36669443.961 7 190947408.46107         0.000          42.500  
  38480735.258 6  38480739.301 6 200379315.29806         0.000          38.400  
  35748796.117 7  35748793.613 7 186153355.17907         0.000          46.600  
  35683427.281 7  35683427.227 7 185812962.04807         0.000          45.900  
  22441343.688 7  22441344.707 7 116857968.60007         0.000          46.400  
  23882021.102 7  23882021.992 7 124359941.15507         0.000          42.100  
  36697521.641 7  36697527.348 7 191093621.47307         0.000          46.400  
  24600673.219 6  24600683.289 6 128102142.90006         0.000          39.600  
  23386138.836 7         0.000   121777774.39707         0.000          45.700  
  24768686.219 7         0.000   128977046.91007         0.000          44.400  
  23940159.500 7         0.000   124662673.27307         0.000          45.000  
 22  6  2  5 34  0.0000000  0 14C01C02C03C04C05C07C10C11C12C13C14C21
                                C23C25
  37387168.938 6  37387172.270 6 194684824.69006         0.000          39.400  
  37388096.961 6  37388097.035 7 194689664.83806         0.000          37.900  
  36668716.914 7  36668717.496 7 190943625.29607         0.000          42.800  
  38480045.141 6  38480048.801 6 200375721.55406         0.000          38.100  
  39088492.227 5         0.000   203544020.12605         0.000          32.500  
  35748260.313 7  35748257.789 7 186150565.65307         0.000          46.300  
  35682542.320 7  35682542.586 7 185808354.79307         0.000          45.900  
  22440289.461 7  22440290.371 7 116852479.19307         0.000          46.300  
  23882443.195 7  23882444.422 7 124362142.16807         0.000          42.500  
  36696709.375 7  36696715.605 7 191089392.90107         0.000          46.000  
  24596963.055 6  24596972.992 6 128082821.55706         0.000          39.800  
  23385342.523 7         0.000   121773627.50907         0.000          44.900  
  24767705.680 7         0.000   128971940.93007         0.000          43.900  
  23941389.766 7         0.000   124669078.60507         0.000          45.300  
 22  6  2  5 34  5.0000000  0 14C01C02C03C04C05C07C10C11C12C13C14C21
                                C23C25
  37386461.922 6  37386466.898 7 194681147.43406         0.000          38.800  
  37387378.469 6  37387378.652 7 194685923.43706         0.000          37.700  
  36667990.570 7  36667990.969 7 190939843.70007         0.000          42.600  
  38479355.367 6  38479359.199 6 200372129.35206         0.000          38.500  
  39087768.328 5  39087772.543 5 203540251.47305         0.000          32.200  
  35747725.328 7  35747722.828 7 186147780.69407         0.000          46.500  
  35681658.805 7  35681658.641 7 185803751.77407         0.000          46.400  
  22439235.266 7  22439236.387 7 116846992.29407         0.000          46.000  
  23882866.734 7  23882867.707 7 124364345.75307         0.000          42.800  
  36695898.531 7  36695904.441 7 191085168.93707         0.000          46.200  
  24593252.961 6  24593262.980 6 128063502.68106         0.000          40.200  
  23384549.008 7         0.000   121769495.49207         0.000          45.600  
  24766727.844 7         0.000   128966848.85707         0.000          44.500  
  23942621.219 7         0.000   124675492.64207         0.000          44.500  
 22  6  2  5 34 10.0000000  0 14C01C02C03C04C05C07C10C11C12C13C14C21
                                C23C25
  37385756.602 6  37385760.355 6 194677471.47306         0.000          38.900  
  37386660.281 6  37386660.414 7 194682183.26106         0.000          37.900  
  36667264.750 7  36667264.996 7 190936063.41007         0.000          42.600  
  38478665.531 6  38478669.816 6 200368538.48906         0.000          38.400  
  39087045.211 5  39087048.977 4 203536484.11405         0.000          31.800  
  35747191.148 7  35747189.004 7 186144999.99807         0.000          45.700  
  35680775.328 7  35680775.594 7 185799152.71107         0.000          46.300  
  22438182.719 7  22438183.375 7 116841507.62707         0.000          46.100  
  23883290.266 7  23883291.492 7 124366551.64407         0.000          42.700  
  36695088.289 7  36695093.898 7 191080949.34307         0.000          46.000  
  24589543.414 6  24589553.266 6 128044185.99106         0.000          40.000  
  23383758.086 7         0.000   121765378.07807         0.000          45.000  
  24765752.469 7         0.000   128961770.43907         0.000          44.300  
  23943855.156 7         0.000   124681915.06507         0.000          44.000  
 22  6  2  5 34 15.0000000  0 14C01C02C03C04C05C07C10C11C12C13C14C21
                                C23C25
  37385050.820 6  37385054.770 7 194673795.82506         0.000          38.600  
  37385941.984 6  37385942.371 7 194678443.42506         0.000          37.900  
  36666538.602 7  36666539.234 7 190932283.46807         0.000          42.400  
  38477976.289 6  38477980.207 6 200364947.94106         0.000          38.600  
  39086321.227 5  39086325.688 5 203532719.06005         0.000          31.000  
  35746657.805 7  35746655.844 7 186142222.64307         0.000          45.700  
  35679892.813 7  35679892.777 7 185794556.66607         0.000          45.800  
  22437129.469 7  22437130.289 7 116836024.24307         0.000          46.300  
  23883713.805 7  23883715.648 7 124368758.92507         0.000          43.000  
  36694278.688 7  36694284.344 7 191076733.22107         0.000          45.900  
  24585833.727 6  24585844.074 6 128024870.52706         0.000          39.800  
  23382970.289 7         0.000   121761274.34007         0.000          44.900  
  24764780.273 7         0.000   128956704.73407         0.000          44.500  
  23945089.945 7         0.000   124688344.96907         0.000          45.200  
 22  6  2  5 34 20.0000000  0 14C01C02C03C04C05C07C10C11C12C13C14C21
                                C23C25
  37384345.289 6  37384348.996 7 194670120.90606         0.000          38.800  
  37385223.758 6  37385224.148 7 194674704.19106         0.000          38.000  
  36665812.938 7  36665813.391 7 190928504.26907         0.000          42.600  
  38477286.742 6  38477290.836 6 200361358.13106         0.000          38.600  
  39085598.016 5         0.000   203528955.68005         0.000          32.600  
  35746125.164 7  35746123.160 7 186139448.96807         0.000          45.800  
  35679010.453 7  35679010.762 7 185789964.02907         0.000          46.200  
  22436076.945 7  22436077.633 7 116830542.50407         0.000          47.000  
  23884138.547 7  23884139.914 7 124370967.95207         0.000          43.000  
  36693469.469 7  36693475.258 7 191072520.86407         0.000          45.800  
  24582124.906 6  24582134.797 6 128005556.74306         0.000          39.600  
  23382184.883 7         0.000   121757184.68107         0.000          45.100  
  24763809.484 7         0.000   128951652.08607         0.000          44.600  
  23946326.617 7         0.000   124694782.68507         0.000          45.400  
 22  6  2  5 34 25.0000000  0 13C01C02C03C04C07C10C11C12C13C14C21C23
                                C25
  37383639.734 6  37383643.238 6 194666446.36606         0.000          38.800  
  37384505.719 6  37384506.129 7 194670965.33906         0.000          37.800  
  36665087.164 7  36665087.816 7 190924725.48007         0.000          42.600  
  38476597.648 6  38476601.555 6 200357768.71406         0.000          38.600  
  35745593.539 7  35745591.313 7 186136678.66107         0.000          45.300  
  35678129.078 7  35678129.316 7 185785374.42807         0.000          45.900  
  22435024.547 7  22435024.988 7 116825062.09607         0.000          46.400  
  23884562.953 7  23884564.512 7 124373178.41007         0.000          43.000  
  36692661.258 7  36692667.117 7 191068311.93307         0.000          46.300  
  24578416.141 6  24578425.852 6 127986244.28506         0.000          39.500  
  23381402.313 7         0.000   121753108.72907         0.000          44.800  
  24762841.578 7         0.000   128946612.18607         0.000          45.000  
  23947564.406 7         0.000   124701227.86907         0.000          45.400  
 22  6  2  5 34 30.0000000  0 13C01C02C03C04C07C10C11C12C13C14C21C23
                                C25
  37382933.742 6  37382938.000 6 194662773.66306         0.000          39.000  
  37383788.742 6  37383788.379 7 194667228.34006         0.000          37.800  
  36664361.742 7  36664362.563 7 190920948.55407         0.000          42.700  
  38475908.320 6  38475912.379 6 200354181.16806         0.000          38.800  
  35745062.211 7  35745059.969 7 186133913.20807         0.000          46.600  
  35677248.586 7  35677248.746 7 185780789.38707         0.000          45.900  
  22433972.898 7  22433973.141 7 116819584.51007         0.000          47.700  
  23884987.883 7  23884989.453 7 124375391.80807         0.000          42.900  
  36691854.336 7  36691859.980 7 191064107.99407         0.000          45.600  
  24574708.133 6  24574717.406 6 127966934.60406         0.000          38.900  
  23380622.656 7         0.000   121749047.98107         0.000          45.100  
  24761876.266 7         0.000   128941586.49207         0.000          44.000  
  23948804.008 7         0.000   124707682.00607         0.000          45.500  
 22  6  2  5 34 35.0000000  0 14C01C02C03C04C05C07C10C11C12C13C14C21
                                C23C25
  37382229.023 6  37382232.832 7 194659101.10906         0.000          39.000  
  37383070.906 6  37383070.836 7 194663491.44206         0.000          37.700  
  36663636.422 7  36663637.281 7 190917171.78507         0.000          42.600  
  38475219.922 6  38475223.563 6 200350593.74906         0.000          38.800  
  39083429.086 5         0.000   203517667.42205         0.000          32.500  
  35744531.820 7  35744529.320 7 186131150.91007         0.000          46.000  
  35676368.484 7  35676368.840 7 185776207.20007         0.000          45.900  
  22432921.289 8  22432921.281 7 116814108.01608         0.000          48.100  
  23885413.086 7  23885414.762 7 124377606.39707         0.000          43.300  
  36691047.359 7  36691053.035 7 191059907.25307         0.000          46.500  
  24571000.727 6  24571009.699 6 127947626.07406         0.000          39.300  
  23379845.109 7         0.000   121745000.72007         0.000          45.900  
  24760913.547 7         0.000   128936573.31907         0.000          44.000  
  23950044.508 7         0.000   124714143.35707         0.000          44.700  
 22  6  2  5 34 40.0000000  0 13C01C02C03C04C07C10C11C12C13C14C21C23
                                C25
  37381524.063 6  37381527.359 6 194655429.60106         0.000          39.000  
  37382353.344 6  37382353.605 7 194659755.54506         0.000          37.900  
  36662911.609 7  36662912.063 7 190913396.07507         0.000          42.500  
  38474530.820 6  38474535.027 6 200347007.35106         0.000          38.100  
  35744002.367 7  35743999.801 7 186128392.61807         0.000          46.600  
  35675489.313 7  35675489.500 7 185771628.67807         0.000          46.000  
  22431869.891 7  22431870.004 7 116808633.48307         0.000          47.700  
  23885839.047 6  23885840.523 7 124379823.03206         0.000          41.600  
  36690241.813 7  36690247.113 7 191055710.60707         0.000          47.300  
  24567292.094 6  24567301.887 6 127928319.49706         0.000          38.700  
  23379070.859 7         0.000   121740967.80207         0.000          45.100  
  24759953.422 7         0.000   128931573.49307         0.000          44.500  
  23951286.813 7         0.000   124720612.80607         0.000          44.700  
 22  6  2  5 34 45.0000000  0 14C01C02C03C04C05C07C10C11C12C13C14C21
                                C23C25
  37380818.945 6  37380822.629 7 194651758.79606         0.000          39.200  
  37381636.375 6  37381636.145 7 194656020.36906         0.000          38.400  
  36662186.313 7  36662187.063 7 190909621.10707         0.000          42.300  
  38473842.031 6  38473845.883 6 200343421.67506         0.000          38.100  
  39081984.609 5  39081987.281 5 203510134.99205         0.000          31.200  
  35743472.875 7  35743470.824 7 186125638.03907         0.000          45.600  
  35674610.789 7  35674610.855 7 185767053.59507         0.000          45.700  
  22430819.156 7  22430819.008 7 116803160.59907         0.000          47.900  
  23886265.047 6  23886266.680 7 124382041.47806         0.000          41.800  
  36689436.313 7  36689441.867 7 191051517.77607         0.000          46.200  
  24563584.867 6  24563594.691 6 127909014.69006         0.000          38.400  
  23378299.141 7         0.000   121736949.00807         0.000          45.300  
  24758996.000 7         0.000   128926586.79407         0.000          43.900  
  23952531.031 7         0.000   124727090.00907         0.000          44.300  
 22  6  2  5 34 50.0000000  0 14C01C02C03C04C05C07C10C11C12C13C14C21
                                C23C25
  37380114.656 6  37380117.605 6 194648088.27106         0.000          39.500  
  37380918.555 6  37380919.035 7 194652285.42106         0.000          37.900  
  36661461.750 7  36661462.191 7 190905846.42607         0.000          42.300  
  38473153.953 6  38473157.605 6 200339836.34206         0.000          38.400  
  39081263.156 5  39081265.371 5 203506372.98505         0.000          31.000  
  35742944.828 7  35742942.410 7 186122886.74607         0.000          46.000  
  35673732.898 7  35673732.945 7 185762481.47007         0.000          46.300  
  22429768.258 8  22429768.340 7 116797688.97708         0.000          48.600  
  23886691.578 6  23886693.016 7 124384261.30606         0.000          41.700  
  36688631.930 7  36688637.535 7 191047328.24807         0.000          46.800  
  24559878.016 6  24559887.430 6 127889711.12006         0.000          38.700  
  23377530.234 7         0.000   121732943.83007         0.000          45.200  
  24758041.016 7         0.000   128921612.71707         0.000          44.800  
  23953776.609 7         0.000   124733574.57307         0.000          44.600  
 22  6  2  5 34 55.0000000  0 14C01C02C03C04C05C07C10C11C12C13C14C21
                                C23C25
  37379409.234 6  37379412.957 6 194644417.92306         0.000          39.300  
  37380201.609 6  37380201.719 7 194648550.68706         0.000          37.800  
  36660736.797 7  36660737.477 7 190902071.97907         0.000          42.400  
  38472465.078 6  38472469.266 6 200336251.12806         0.000          38.400  
  39080539.313 5  39080543.215 5 203502611.95605         0.000          31.800  
  35742416.828 7  35742414.688 7 186120138.66807         0.000          45.800  
  35672855.461 7  35672855.516 7 185757912.24607         0.000          45.100  
  22428717.844 8  22428717.734 7 116792218.49808         0.000          48.600  
  23887117.609 7  23887119.629 7 124386482.38407         0.000          42.600  
  36687828.289 7  36687833.488 7 191043142.03507         0.000          46.400  
  24556171.602 6  24556180.539 6 127870408.78506         0.000          38.700  
  23376763.359 7         0.000   121728952.20507         0.000          45.200  
  24757088.008 7         0.000   128916651.18107         0.000          44.900  
  23955023.469 7         0.000   124740066.33107         0.000          44.700  
 22  6  2  5 35  0.0000000  0 13C01C02C03C04C07C10C11C12C13C14C21C23
                                C25
  37378705.000 6  37378708.773 7 194640749.67606         0.000          39.100  
  37379484.672 6  37379484.836 7 194644817.93706         0.000          37.900  
  36660012.008 7  36660013.043 7 190898299.63907         0.000          42.200  
  38471777.258 6  38471781.031 6 200332668.08906         0.000          38.900  
  35741890.211 7  35741887.820 7 186117395.68607         0.000          45.500  
  35671978.836 7  35671979.051 7 185753347.79507         0.000          45.900  
  22427667.898 8  22427667.410 7 116786751.05608         0.000          48.200  
  23887544.570 7  23887546.641 7 124388706.59307         0.000          42.400  
  36687025.375 7  36687030.527 7 191038960.91907         0.000          46.400  
  24552465.352 6  24552474.480 6 127851109.52606         0.000          40.200  
  23376000.086 7         0.000   121724976.02407         0.000          45.000  
  24756138.250 7         0.000   128911704.09507         0.000          45.100  
  23956271.617 7         0.000   124746567.21707         0.000          45.500  
 22  6  2  5 35  5.0000000  0 14C01C02C03C04C05C07C10C11C12C13C14C21
                                C23C25
  37378000.414 6  37378004.070 6 194637081.34506         0.000          39.100  
  37378767.813 6  37378768.137 7 194641085.06806         0.000          37.800  
  36659288.031 7  36659288.555 7 190894527.19707         0.000          42.300  
  38471089.117 6  38471092.871 6 200329084.90206         0.000          38.600  
  39079094.961 5  39079098.984 5 203495089.11605         0.000          31.800  
  35741364.320 7  35741361.344 7 186114655.62507         0.000          45.200  
  35671102.945 7  35671102.813 7 185748786.00307         0.000          45.900  
  22426618.070 8  22426618.035 7 116781284.45408         0.000          48.600  
  23887971.969 7  23887973.953 7 124390931.77307         0.000          42.600  
  36686222.664 7  36686228.035 7 191034782.77707         0.000          46.300  
  24548759.195 6  24548768.613 6 127831811.21806         0.000          38.700  
  23375238.664 7         0.000   121721013.10507         0.000          45.300  
  24755190.328 7         0.000   128906769.25707         0.000          44.700  
  23957521.664 7         0.000   124753074.97907         0.000          45.100  
 22  6  2  5 35 10.0000000  0 13C01C02C03C04C07C10C11C12C13C14C21C23
                                C25
  37377296.047 6  37377299.820 6 194633413.72006         0.000          38.300  
  37378051.297 6  37378051.402 7 194637352.93106         0.000          37.500  
  36658563.641 7  36658564.211 7 190890755.54307         0.000          42.400  
  38470401.242 6  38470405.250 6 200325502.51206         0.000          38.400  
  35740838.500 7  35740836.070 7 186111919.25507         0.000          46.000  
  35670227.336 7  35670227.422 7 185744227.59507         0.000          45.800  
  22425568.656 8  22425568.254 7 116775819.54608         0.000          48.800  
  23888399.578 6  23888401.773 7 124393158.79806         0.000          41.800  
  36685421.180 7  36685426.477 7 191030608.49107         0.000          47.000  
  24545053.430 6  24545063.262 6 127812514.73306         0.000          38.800  
  23374480.742 7         0.000   121717064.30307         0.000          46.300  
  24754245.188 7         0.000   128901847.51007         0.000          44.700  
  23958772.930 7         0.000   124759590.52207         0.000          45.300  
 22  6  2  5 35 15.0000000  0 14C01C02C03C04C05C07C10C11C12C13C14C21
                                C23C25
  37376592.391 6  37376595.664 7 194629746.42306         0.000          38.400  
  37377334.563 6  37377334.746 7 194633621.11906         0.000          38.100  
  36657839.305 7  36657840.266 7 190886984.23807         0.000          42.500  
  38469712.852 6  38469717.410 6 200321920.42806         0.000          38.300  
  39077650.156 5         0.000   203487571.41205         0.000          31.600  
  35740313.727 7  35740311.254 7 186109186.29007         0.000          46.300  
  35669352.586 7  35669352.844 7 185739672.24007         0.000          46.600  
  22424519.813 8  22424519.043 7 116770355.91008         0.000          48.600  
  23888827.313 7  23888829.738 7 124395387.21607         0.000          42.000  
  36684620.406 7  36684625.375 7 191026437.57907         0.000          46.600  
  24541348.211 6  24541358.094 7 127793219.56506         0.000          38.400  
  23373724.578 7         0.000   121713129.17507         0.000          46.500  
  24753302.813 7         0.000   128896938.41207         0.000          44.400  
  23960025.469 7         0.000   124766113.37207         0.000          45.200  
 22  6  2  5 35 20.0000000  0 14C01C02C03C04C05C07C10C11C12C13C14C21
                                C23C25
  37375887.430 6  37375891.445 7 194626079.20606         0.000          38.400  
  37376617.758 6  37376617.824 7 194629889.33706         0.000          37.600  
  36657114.930 7  36657115.707 7 190883212.97907         0.000          42.400  
  38469024.906 6  38469029.207 6 200318338.41706         0.000          38.100  
  39076929.789 5         0.000   203483813.96805         0.000          31.300  
  35739789.820 7  35739786.938 7 186106456.34007         0.000          46.600  
  35668478.492 7  35668478.609 7 185735119.62407         0.000          46.500  
  22423470.516 8  22423469.961 7 116764893.30108         0.000          48.800  
  23889255.531 7  23889257.895 7 124397616.76707         0.000          42.200  
  36683819.742 7  36683824.910 7 191022269.72507         0.000          46.600  
  24537643.305 6  24537652.910 7 127773925.58206         0.000          38.100  
  23372971.406 7         0.000   121709207.47707         0.000          45.800  
  24752362.078 7         0.000   128892041.73607         0.000          44.600  
  23961279.438 7         0.000   124772643.21807         0.000          44.800  
 22  6  2  5 35 25.0000000  0 14C01C02C03C04C05C07C10C11C12C13C14C21
                                C23C25
  37375183.297 6  37375187.105 6 194622412.70806         0.000          39.000  
  37375901.602 6  37375901.691 7 194626158.20306         0.000          37.700  
  36656391.164 7  36656391.711 7 190879442.48807         0.000          42.500  
  38468338.023 6  38468341.523 6 200314757.08506         0.000          38.700  
  39076208.367 5  39076212.531 5 203480060.66505         0.000          31.900  
  35739266.375 7  35739263.707 7 186103730.13707         0.000          46.800  
  35667605.078 7  35667605.125 7 185730570.48007         0.000          46.000  
  22422421.969 8  22422421.348 7 116759432.37608         0.000          48.700  
  23889684.508 6  23889686.520 7 124399848.12406         0.000          41.600  
  36683019.938 7  36683025.215 7 191018105.72007         0.000          46.300  
  24533937.727 6  24533947.949 6 127754633.33306         0.000          37.600  
  23372221.031 7         0.000   121705299.87907         0.000          44.800  
  24751424.383 7         0.000   128887158.13407         0.000          44.600  
  23962535.008 7         0.000   124779180.79007         0.000          45.200  
 22  6  2  5 35 30.0000000  0 13C01C02C03C04C07C10C11C12C13C14C21C23
                                C25
  37374479.461 6  37374483.473 7 194618747.24506         0.000          38.900  
  37375184.977 6  37375185.301 7 194622428.14506         0.000          37.900  
  36655667.313 7  36655668.109 7 190875673.09407         0.000          42.400  
  38467650.133 6  38467654.172 6 200311176.86306         0.000          38.300  
  35738743.492 7  35738740.848 7 186101008.03107         0.000          46.900  
  35666732.164 7  35666732.133 7 185726025.10607         0.000          46.200  
  22421373.422 8  22421373.098 7 116753973.46608         0.000          49.000  
  23890113.000 6  23890115.445 7 124402081.66406         0.000          41.900  
  36682220.922 7  36682226.441 7 191013945.79507         0.000          46.300  
  24530233.148 6  24530243.605 6 127735343.27306         0.000          37.600  
  23371473.219 7         0.000   121701406.74307         0.000          44.500  
  24750489.586 7         0.000   128882287.96007         0.000          45.400  
  23963792.430 7         0.000   124785726.38607         0.000          46.300  
 22  6  2  5 35 35.0000000  0 13C01C02C03C04C07C10C11C12C13C14C21C23
                                C25
  37373775.313 6  37373779.383 6 194615082.13206         0.000          39.100  
  37374468.922 6  37374468.914 7 194618698.35706         0.000          37.800  
  36654943.313 7  36654944.145 7 190871904.05207         0.000          42.300  
  38466962.961 6  38466966.527 6 200307596.99806         0.000          38.000  
  35738221.258 7  35738218.551 7 186098289.18607         0.000          46.800  
  35665859.836 7  35665859.789 7 185721482.73507         0.000          47.000  
  22420325.406 8  22420325.055 7 116748515.83108         0.000          48.500  
  23890542.172 6  23890544.633 7 124404316.56706         0.000          41.700  
  36681422.711 7  36681428.383 7 191009789.21907         0.000          46.100  
  24526530.102 6  24526539.375 7 127716054.60306         0.000          37.700  
  23370728.117 7         0.000   121697527.28207         0.000          44.700  
  24749556.242 7         0.000   128877430.41707         0.000          45.000  
  23965050.305 7         0.000   124792279.24607         0.000          45.600  
 22  6  2  5 35 40.0000000  0 13C01C02C03C04C07C10C11C12C13C14C21C23
                                C25
  37373072.047 6  37373075.973 7 194611417.92806         0.000          38.600  
  37373752.688 6  37373752.945 7 194614969.42506         0.000          37.900  
  36654219.453 7  36654220.613 7 190868135.92007         0.000          42.400  
  38466275.336 6  38466279.379 6 200304018.02106         0.000          38.500  
  35737700.008 7  35737697.316 7 186095574.31107         0.000          46.400  
  35664988.289 7  35664988.129 7 185716944.02507         0.000          46.000  
  22419277.484 8  22419277.297 7 116743060.05608         0.000          48.600  
  23890971.789 7  23890974.020 7 124406553.48607         0.000          42.100  
  36680625.242 7  36680630.918 7 191005636.66307         0.000          45.900  
  24522825.828 6  24522835.605 7 127696767.99206         0.000          38.600  
  23369985.898 7         0.000   121693662.09807         0.000          45.000  
  24748626.438 7         0.000   128872586.16807         0.000          45.200  
  23966309.977 7         0.000   124798839.95107         0.000          45.200  
 22  6  2  5 35 45.0000000  0 14C01C02C03C04C05C07C10C11C12C13C14C21
                                C23C25
  37372368.438 6  37372372.434 7 194607754.94006         0.000          38.400  
  37373037.211 6  37373036.871 7 194611241.73306         0.000          38.300  
  36653496.477 7  36653496.977 7 190864369.08507         0.000          42.600  
  38465588.234 6  38465592.195 6 200300440.32406         0.000          38.400  
  39073323.203 5         0.000   203465049.89205         0.000          31.500  
  35737179.320 7  35737176.648 7 186092863.76107         0.000          46.900  
  35664117.273 7  35664117.234 7 185712409.25707         0.000          45.800  
  22418230.445 7  22418230.297 7 116737606.48907         0.000          47.900  
  23891402.477 7  23891404.129 7 124408792.75207         0.000          42.300  
  36679828.523 7  36679834.281 7 191001488.41107         0.000          46.200  
  24519122.500 6  24519132.277 7 127677483.74806         0.000          38.500  
  23369246.492 7         0.000   121689811.54907         0.000          44.600  
  24747698.484 7         0.000   128867755.47307         0.000          45.000  
  23967571.711 7         0.000   124805408.83507         0.000          45.200  
 22  6  2  5 35 50.0000000  0 13C01C02C03C04C07C10C11C12C13C14C21C23
                                C25
  37371665.406 6  37371669.320 7 194604093.00406         0.000          38.300  
  37372321.391 6  37372321.262 7 194607515.07906         0.000          37.900  
  36652773.539 7  36652774.098 7 190860603.25207         0.000          42.600  
  38464901.297 6  38464905.594 6 200296863.63506         0.000          38.800  
  35736659.547 7  35736657.012 7 186090157.17507         0.000          46.000  
  35663247.258 7  35663247.043 7 185707878.17407         0.000          47.000  
  22417183.203 8  22417183.266 7 116732154.89108         0.000          48.300  
  23891832.430 6  23891834.406 7 124411034.08606         0.000          41.800  
  36679032.945 7  36679038.602 7 190997344.18307         0.000          46.200  
  24515419.906 6  24515429.570 7 127658201.63806         0.000          38.700  
  23368510.266 7         0.000   121685975.38107         0.000          45.500  
  24746773.945 7         0.000   128862938.13307         0.000          45.400  
  23968834.211 7         0.000   124811985.61907         0.000          45.100  
 22  6  2  5 35 55.0000000  0 14C01C02C03C04C05C07C10C11C12C13C14C21
                                C23C25
  37370962.008 6  37370966.074 7 194600431.06606         0.000          38.500  
  37371605.055 6  37371605.688 7 194603788.37406         0.000          37.500  
  36652050.031 7  36652050.715 7 190856837.46007         0.000          42.500  
  38464214.531 6  38464218.617 6 200293286.93606         0.000          38.800  
  39071881.469 5  39071884.797 5 203457539.33005         0.000          31.200  
  35736140.594 7  35736137.648 7 186087453.62907         0.000          46.100  
  35662377.508 7  35662377.570 7 185703349.86807         0.000          46.100  
  22416136.422 8  22416136.590 7 116726704.25508         0.000          48.000  
  23892263.148 7  23892264.902 7 124413276.54407         0.000          42.000  
  36678237.680 7  36678243.387 7 190993203.01607         0.000          46.000  
  24511716.492 6  24511726.914 6 127638920.72106         0.000          38.500  
  23367775.680 7         0.000   121682152.61807         0.000          45.300  
  24745850.781 7         0.000   128858133.13907         0.000          44.600  
  23970098.688 7         0.000   124818569.31607         0.000          44.600  
 22  6  2  5 36  0.0000000  0 14C01C02C03C04C05C07C10C11C12C13C14C21
                                C23C25
  37370258.727 6  37370262.922 6 194596770.00706         0.000          38.700  
  37370889.820 6  37370889.930 7 194600062.50506         0.000          37.900  
  36651326.602 7  36651327.508 7 190853072.56607         0.000          42.100  
  38463527.984 6  38463531.863 6 200289711.16906         0.000          38.400  
  39071160.773 5         0.000   203453785.25205         0.000          31.800  
  35735622.031 7  35735619.203 7 186084753.97307         0.000          47.000  
  35661508.602 7  35661508.422 7 185698825.19207         0.000          46.900  
  22415090.117 7  22415090.023 7 116721255.46707         0.000          47.800  
  23892694.219 7  23892695.813 7 124415520.99507         0.000          42.500  
  36677443.047 7  36677448.992 7 190989065.83807         0.000          45.900  
  24508014.547 6  24508024.695 6 127619641.79806         0.000          38.700  
  23367044.852 7         0.000   121678344.10907         0.000          45.300  
  24744930.484 7         0.000   128853341.38007         0.000          44.500  
  23971364.508 7         0.000   124825160.78607         0.000          43.900  
 22  6  2  5 36  5.0000000  0 13C01C02C03C04C07C10C11C12C13C14C21C23
                                C25
  37369556.156 6  37369559.871 7 194593108.74006         0.000          38.400  
  37370174.500 6  37370174.527 7 194596336.46606         0.000          38.000  
  36650603.961 7  36650604.863 7 190849307.50407         0.000          42.600  
  38462841.063 6  38462845.563 6 200286135.19406         0.000          39.100  
  35735104.172 7  35735101.484 7 186082057.14707         0.000          47.100  
  35660640.430 7  35660640.176 7 185694303.04907         0.000          46.300  
  22414043.461 7  22414043.934 7 116715807.43207         0.000          47.600  
  23893125.445 7  23893127.066 7 124417766.34207         0.000          42.300  
  36676649.227 7  36676654.980 7 190984931.50407         0.000          46.000  
  24504312.406 6  24504322.480 7 127600363.88306         0.000          38.500  
  23366316.109 7         0.000   121674548.81007         0.000          45.700  
  24744012.461 7         0.000   128848561.76307         0.000          44.700  
  23972631.883 7         0.000   124831758.94607         0.000          43.900  
 22  6  2  5 36 10.0000000  0 13C01C02C03C04C07C10C11C12C13C14C21C23
                                C25
  37368853.141 6  37368856.867 7 194589448.75106         0.000          38.600  
  37369458.883 6  37369459.391 7 194592611.66006         0.000          37.600  
  36649880.977 7  36649881.773 7 190845543.75807         0.000          42.600  
  38462154.641 6  38462158.859 6 200282560.51606         0.000          38.700  
  35734586.891 7  35734584.305 7 186079364.65007         0.000          46.400  
  35659772.242 7  35659772.434 7 185689784.89907         0.000          45.600  
  22412997.977 7  22412998.203 7 116710361.64007         0.000          47.500  
  23893557.633 6  23893558.715 7 124420014.10406         0.000          41.700  
  36675855.945 7  36675861.914 7 190980801.47407         0.000          46.500  
  24500610.258 6  24500620.789 7 127581088.42406         0.000          37.700  
  23365590.039 7         0.000   121670768.18907         0.000          45.700  
  24743096.945 7         0.000   128843795.75607         0.000          43.900  
  23973900.828 7         0.000   124838365.26107         0.000          44.300  
 22  6  2  5 36 15.0000000  0 13C01C02C03C04C07C10C11C12C13C14C21C23
                                C25
  37368150.438 6  37368154.301 7 194585788.89606         0.000          38.800  
  37368743.422 6  37368743.926 7 194588886.87406         0.000          37.900  
  36649158.609 7  36649159.164 7 190841780.11707         0.000          42.500  
  38461468.219 6  38461472.402 6 200278985.94006         0.000          38.700  
  35734070.695 7  35734067.848 7 186076675.27107         0.000          46.500  
  35658905.844 7  35658905.520 7 185685269.60707         0.000          45.900  
  22411952.820 8  22411952.465 7 116704916.85308         0.000          48.300  
  23893989.102 6  23893990.711 7 124422263.07906         0.000          41.500  
  36675063.586 7  36675069.191 7 190976674.52107         0.000          46.100  
  24496908.695 6  24496919.391 6 127561814.26806         0.000          38.100  
  23364866.469 7         0.000   121667001.02107         0.000          45.900  
  24742183.891 7         0.000   128839042.16607         0.000          43.900  
  23975170.867 7         0.000   124844978.49307         0.000          44.100  
 22  6  2  5 36 20.0000000  0 13C01C02C03C04C07C10C11C12C13C14C21C23
                                C25
  37367447.750 6  37367451.539 7 194582129.84606         0.000          38.500  
  37368028.969 6  37368029.043 7 194585162.93206         0.000          38.000  
  36648435.711 7  36648436.434 7 190838017.34107         0.000          42.300  
  38460781.992 6  38460785.949 6 200275412.17106         0.000          38.400  
  35733554.953 7  35733551.871 7 186073989.75207         0.000          45.900  
  35658039.016 7  35658038.961 7 185680757.79807         0.000          47.000  
  22410907.352 7  22410907.195 7 116699473.91307         0.000          47.600  
  23894421.719 6  23894422.844 7 124424513.94106         0.000          41.400  
  36674271.883 7  36674277.344 7 190972551.45607         0.000          46.700  
  24493207.797 6  24493218.063 6 127542542.11906         0.000          38.800  
  23364145.602 7         0.000   121663248.08607         0.000          45.500  
  24741273.828 7         0.000   128834301.73107         0.000          44.000  
  23976442.820 7         0.000   124851599.43807         0.000          44.300  
 22  6  2  5 36 25.0000000  0 14C01C02C03C04C05C07C10C11C12C13C14C21
                                C23C25
  37366745.094 6  37366748.672 7 194578470.55106         0.000          38.600  
  37367313.703 6  37367313.629 7 194581438.68806         0.000          38.100  
  36647713.680 7  36647713.945 7 190834254.28907         0.000          42.400  
  38460095.492 6  38460099.719 6 200271838.19206         0.000          38.600  
  39067556.828 5         0.000   203435028.19405         0.000          33.200  
  35733039.609 7  35733036.742 7 186071306.97507         0.000          46.200  
  35657173.125 7  35657173.203 7 185676248.49607         0.000          45.700  
  22409862.281 7  22409861.922 7 116694031.62507         0.000          47.400  
  23894854.117 6  23894855.266 7 124426765.64306         0.000          41.500  
  36673480.570 7  36673486.195 7 190968431.14907         0.000          46.500  
  24489507.563 6  24489517.324 6 127523270.90206         0.000          39.600  
  23363427.586 7         0.000   121659508.29307         0.000          45.800  
  24740365.594 7         0.000   128829573.36407         0.000          43.500  
  23977715.367 7         0.000   124858226.94107         0.000          44.500  
 22  6  2  5 36 30.0000000  0 13C01C02C03C04C07C10C11C12C13C14C21C23
                                C25
  37366042.078 6  37366046.332 7 194574811.88006         0.000          38.800  
  37366597.953 6  37366598.566 7 194577715.02706         0.000          38.100  
  36646990.281 7  36646991.277 7 190830491.93207         0.000          42.300  
  38459409.086 6  38459413.281 6 200268264.85406         0.000          38.600  
  35732525.172 7  35732522.238 7 186068627.87807         0.000          46.900  
  35656307.734 7  35656307.680 7 185671742.55107         0.000          46.100  
  22408817.273 7  22408817.219 7 116688590.99807         0.000          47.700  
  23895286.547 6  23895288.066 7 124429019.15006         0.000          41.300  
  36672690.203 7  36672695.855 7 190964314.57407         0.000          46.000  
  24485806.914 6  24485816.930 7 127504001.57506         0.000          39.500  
  23362712.453 7         0.000   121655782.56107         0.000          45.300  
  24739459.977 7         0.000   128824857.98807         0.000          43.400  
  23978989.516 7         0.000   124864861.93007         0.000          44.600  
 22  6  2  5 36 35.0000000  0 14C01C02C03C04C05C07C10C11C12C13C14C21
                                C23C25
  37365339.719 6  37365343.871 7 194571153.97306         0.000          38.400  
  37365883.578 6  37365883.859 7 194573992.18406         0.000          38.100  
  36646268.383 7  36646269.391 7 190826730.38507         0.000          42.200  
  38458723.328 6  38458727.184 6 200264692.25506         0.000          38.500  
  39066117.781 5         0.000   203427525.08805         0.000          32.200  
  35732011.242 7  35732008.676 7 186065952.56507         0.000          47.200  
  35655443.078 7  35655442.902 7 185667240.14107         0.000          46.000  
  22407772.711 7  22407772.941 7 116683152.07007         0.000          47.600  
  23895719.234 6  23895721.617 7 124431274.52406         0.000          41.300  
  36671900.125 7  36671905.773 7 190960201.78707         0.000          45.800  
  24482106.945 6  24482117.070 6 127484734.25806         0.000          39.000  
  23361999.641 7         0.000   121652070.98807         0.000          44.400  
  24738557.383 7         0.000   128820155.67107         0.000          44.000  
  23980264.852 7         0.000   124871504.47607         0.000          44.400  
 22  6  2  5 36 40.0000000  0 14C01C02C03C04C05C07C10C11C12C13C14C21
                                C23C25
  37364637.320 6  37364641.586 6 194567496.84106         0.000          38.300  
  37365169.039 6  37365168.832 7 194570270.08106         0.000          37.900  
  36645546.094 7  36645546.758 7 190822969.63907         0.000          42.300  
  38458037.828 6  38458041.676 6 200261120.49606         0.000          38.600  
  39065396.883 5  39065401.648 5 203423776.43405         0.000          31.900  
  35731498.461 7  35731495.672 7 186063281.08407         0.000          46.800  
  35654578.852 7  35654579.039 7 185662741.20907         0.000          45.800  
  22406728.711 8  22406728.602 7 116677714.93808         0.000          48.100  
  23896153.141 6  23896155.078 7 124433531.84006         0.000          41.400  
  36671110.586 7  36671116.770 7 190956092.86407         0.000          46.000  
  24478406.313 6  24478417.469 6 127465469.00206         0.000          39.200  
  23361289.289 7         0.000   121648373.62207         0.000          45.800  
  24737657.188 7         0.000   128815466.49707         0.000          44.000  
  23981542.234 7         0.000   124878154.64507         0.000          44.600  
 22  6  2  5 36 45.0000000  0 13C01C02C03C04C07C10C11C12C13C14C21C23
                                C25
  37363935.297 6  37363939.328 7 194563840.38506         0.000          38.600  
  37364453.945 6  37364454.484 7 194566548.57406         0.000          38.000  
  36644823.891 7  36644824.855 7 190819209.54307         0.000          42.400  
  38457351.539 6  38457355.617 6 200257549.41606         0.000          38.500  
  35730985.930 7  35730983.152 7 186060613.29307         0.000          45.300  
  35653715.680 7  35653715.574 7 185658245.68807         0.000          46.300  
  22405684.875 7  22405685.113 7 116672279.37707         0.000          47.500  
  23896587.164 6  23896589.090 7 124435790.90906         0.000          41.600  
  36670322.672 7  36670328.480 7 190951987.56507         0.000          47.100  
  24474707.617 6  24474718.188 6 127446205.62306         0.000          38.800  
  23360582.031 7         0.000   121644690.28407         0.000          46.300  
  24736759.000 7         0.000   128810790.30607         0.000          44.800  
  23982820.555 7         0.000   124884812.21107         0.000          44.700  
 22  6  2  5 36 50.0000000  0 14C01C02C03C04C05C07C10C11C12C13C14C21
                                C23C25
  37363233.266 6  37363237.328 7 194560184.69706         0.000          38.600  
  37363739.711 6  37363739.770 7 194562827.85906         0.000          37.900  
  36644102.102 7  36644102.773 7 190815450.30607         0.000          42.200  
  38456666.008 6  38456670.176 6 200253979.09606         0.000          38.600  
  39063958.313 5  39063961.125 5 203416278.08105         0.000          32.300  
  35730474.391 7  35730471.727 7 186057949.33207         0.000          46.000  
  35652853.133 7  35652853.180 7 185653753.71207         0.000          46.400  
  22404641.055 7  22404641.387 7 116666845.55507         0.000          47.300  
  23897021.570 7  23897023.152 7 124438051.85307         0.000          42.100  
  36669535.102 7  36669540.957 7 190947886.13307         0.000          47.000  
  24471008.648 6  24471018.836 6 127426944.30306         0.000          39.000  
  23359877.250 7         0.000   121641021.16507         0.000          45.700  
  24735863.617 7         0.000   128806127.21407         0.000          44.500  
  23984100.461 7         0.000   124891477.38107         0.000          44.500  
 22  6  2  5 36 55.0000000  0 14C01C02C03C04C05C07C10C11C12C13C14C21
                                C23C25
  37362531.313 6  37362535.492 7 194556529.50006         0.000          38.500  
  37363025.328 6  37363025.457 7 194559107.58006         0.000          37.700  
  36643380.703 7  36643381.090 7 190811691.52807         0.000          42.300  
  38455980.070 6  38455984.629 6 200250409.26006         0.000          38.600  
  39063237.766 5         0.000   203412532.70305         0.000          31.500  
  35729963.508 7  35729960.754 7 186055288.86907         0.000          46.900  
  35651990.625 7  35651990.875 7 185649264.90607         0.000          45.800  
  22403597.734 7  22403598.199 7 116661413.17607         0.000          47.700  
  23897456.086 6  23897458.277 7 124440314.44606         0.000          41.700  
  36668748.172 7  36668753.715 7 190943788.24907         0.000          46.000  
  24467309.813 6  24467320.191 6 127407684.72806         0.000          39.000  
  23359175.297 7         0.000   121637365.89607         0.000          44.900  
  24734970.367 7         0.000   128801476.90107         0.000          44.500  
  23985382.188 7         0.000   124898149.78207         0.000          45.200  
 22  6  2  5 37  0.0000000  0 14C01C02C03C04C05C07C10C11C12C13C14C21
                                C23C25
  37361830.055 6  37361833.629 7 194552875.45306         0.000          38.800  
  37362310.398 6  37362311.078 7 194555388.43806         0.000          37.700  
  36642658.602 7  36642659.617 7 190807933.93907         0.000          42.200  
  38455294.602 6  38455299.016 6 200246840.60206         0.000          38.300  
  39062518.234 5  39062522.070 5 203408786.63705         0.000          31.500  
  35729453.023 7  35729450.734 7 186052632.59307         0.000          45.900  
  35651129.430 7  35651129.695 7 185644780.02007         0.000          46.000  
  22402554.516 7  22402555.465 8 116655982.92007         0.000          47.000  
  23897891.125 6  23897893.301 7 124442579.30506         0.000          41.300  
  36667961.797 7  36667967.391 7 190939694.48307         0.000          45.800  
  24463611.633 6  24463621.793 6 127388427.59506         0.000          39.500  
  23358476.281 7         0.000   121633725.22007         0.000          44.800  
  24734079.867 7         0.000   128796840.09007         0.000          43.800  
  23986665.094 7         0.000   124904830.10707         0.000          44.800  
 22  6  2  5 37  5.0000000  0 14C01C02C03C04C05C07C10C11C12C13C14C21
                                C23C25
  37361128.141 6  37361132.090 7 194549221.99806         0.000          38.600  
  37361597.063 6  37361596.863 7 194551669.82906         0.000          37.900  
  36641937.430 7  36641938.012 7 190804176.97307         0.000          42.400  
  38454609.500 6  38454614.090 6 200243272.54706         0.000          38.500  
  39061798.859 5         0.000   203405040.52505         0.000          32.800  
  35728943.813 7  35728941.246 7 186049979.89707         0.000          45.600  
  35650269.070 7  35650269.066 7 185640298.44507         0.000          46.100  
  22401512.125 7  22401512.734 8 116650554.22207         0.000          46.800  
  23898325.844 6  23898328.590 7 124444845.88406         0.000          41.800  
  36667176.195 7  36667182.188 7 190935604.38907         0.000          46.500  
  24459914.477 6  24459923.945 6 127369172.37706         0.000          39.400  
  23357779.727 7         0.000   121630098.54507         0.000          45.400  
  24733192.469 7         0.000   128792216.14607         0.000          44.300  
  23987948.930 7         0.000   124911517.74107         0.000          44.700  
 22  6  2  5 37 10.0000000  0 14C01C02C03C04C05C07C10C11C12C13C14C21
                                C23C25
  37360426.438 6  37360430.246 7 194545568.59606         0.000          38.800  
  37360882.336 6  37360882.816 7 194547951.24406         0.000          37.800  
  36641215.953 7  36641216.512 7 190800420.07507         0.000          42.500  
  38453924.891 6  38453928.793 6 200239704.55806         0.000          38.700  
  39061080.258 5  39061084.363 5 203401293.48705         0.000          31.200  
  35728434.758 7  35728432.438 7 186047330.32707         0.000          45.400  
  35649409.281 7  35649408.945 7 185635819.72007         0.000          46.300  
  22400469.883 7  22400470.387 7 116645126.57207         0.000          46.800  
  23898761.125 6  23898763.840 7 124447113.69006         0.000          40.900  
  36666391.305 7  36666397.426 7 190931517.33807         0.000          46.800  
  24456217.508 6  24456226.227 6 127349918.52006         0.000          39.600  
  23357085.938 7         0.000   121626485.32407         0.000          46.000  
  24732306.547 7         0.000   128787604.59107         0.000          44.700  
  23989234.914 7         0.000   124918212.18207         0.000          44.500  
 22  6  2  5 37 15.0000000  0 14C01C02C03C04C05C07C10C11C12C13C14C21
                                C23C25
  37359724.836 6  37359728.781 7 194541914.88206         0.000          38.800  
  37360168.141 6  37360168.664 7 194544232.31406         0.000          37.900  
  36640494.320 7  36640495.043 7 190796662.88107         0.000          42.400  
  38453239.281 6  38453243.590 6 200236136.22706         0.000          38.600  
  39060361.500 5  39060365.070 5 203397546.51305         0.000          31.300  
  35727926.609 7  35727924.094 7 186044683.42007         0.000          45.900  
  35648549.281 7  35648549.320 7 185631343.39507         0.000          45.600  
  22399427.555 7  22399428.219 7 116639699.51207         0.000          46.700  
  23899197.094 6  23899199.438 7 124449382.26706         0.000          41.600  
  36665607.070 7  36665612.797 7 190927432.94707         0.000          46.400  
  24452520.391 6  24452529.199 6 127330665.60706         0.000          40.500  
  23356394.602 7         0.000   121622885.17907         0.000          46.700  
  24731423.688 7         0.000   128783005.02207         0.000          44.300  
  23990521.875 7         0.000   124924913.01907         0.000          45.300  
 22  6  2  5 37 20.0000000  0 13C01C02C03C04C07C10C11C12C13C14C21C23
                                C25
  37359023.391 6  37359027.047 7 194538261.11406         0.000          38.800  
  37359454.477 6  37359454.520 7 194540513.34106         0.000          37.900  
  36639772.391 7  36639773.492 7 190792905.63707         0.000          42.600  
  38452554.055 6  38452558.422 6 200232567.85806         0.000          38.700  
  35727418.820 7  35727416.461 7 186042039.54207         0.000          46.100  
  35647690.344 7  35647690.316 7 185626869.76207         0.000          45.800  
  22398385.727 7  22398386.254 7 116634273.39207         0.000          47.500  
  23899633.484 6  23899635.145 7 124451651.93106         0.000          41.600  
  36664823.164 7  36664829.246 7 190923351.54707         0.000          45.900  
  24448823.133 6  24448831.746 6 127311414.03206         0.000          40.100  
  23355705.945 7         0.000   121619298.39207         0.000          45.900  
  24730541.977 7         0.000   128778417.69207         0.000          43.900  
  23991809.867 7         0.000   124931620.49607         0.000          45.400  
 22  6  2  5 37 25.0000000  0 13C01C02C03C04C07C10C11C12C13C14C21C23
                                C25
  37358321.820 6  37358325.422 7 194534607.80606         0.000          39.000  
  37358740.313 6  37358740.383 7 194536794.79106         0.000          37.600  
  36639051.563 7  36639052.117 7 190789148.93307         0.000          42.400  
  38451868.891 6  38451873.176 6 200228999.99706         0.000          38.600  
  35726912.266 7  35726909.406 7 186039399.18107         0.000          46.600  
  35646831.813 7  35646831.805 7 185622399.38207         0.000          46.100  
  22397344.016 7  22397344.535 7 116628848.71907         0.000          46.300  
  23900068.867 6  23900071.098 7 124453923.30206         0.000          41.100  
  36664040.180 7  36664046.102 7 190919273.69807         0.000          45.800  
  24445126.391 6  24445135.426 6 127292164.29106         0.000          39.600  
  23355019.859 7         0.000   121615725.56007         0.000          45.400  
  24729664.016 7         0.000   128773843.21007         0.000          44.100  
  23993099.461 7         0.000   124938335.21707         0.000          45.200  
 22  6  2  5 37 30.0000000  0 13C01C02C03C04C07C10C11C12C13C14C21C23
                                C25
  37357620.367 6  37357624.188 7 194530955.24106         0.000          39.100  
  37358026.055 6  37358026.699 7 194533076.94106         0.000          37.900  
  36638330.141 7  36638330.680 7 190785392.94007         0.000          42.500  
  38451183.797 6  38451188.098 6 200225432.82106         0.000          38.600  
  35726405.852 7  35726403.137 7 186036762.60107         0.000          46.800  
  35645973.891 7  35645974.031 7 185617932.42107         0.000          45.800  
  22396302.281 7  22396303.031 7 116623425.74707         0.000          46.200  
  23900505.352 6  23900507.539 7 124456196.43506         0.000          40.800  
  36663257.750 7  36663263.457 7 190915199.46307         0.000          45.700  
  24441429.758 6  24441439.184 6 127272916.59206         0.000          39.800  
  23354336.438 7         0.000   121612166.82407         0.000          45.200  
  24728787.695 7         0.000   128769281.70807         0.000          44.300  
  23994389.898 7         0.000   124945057.28407         0.000          45.200  
 22  6  2  5 37 35.0000000  0 13C01C02C03C04C07C10C11C12C13C14C21C23
                                C25
  37356918.805 6  37356922.645 6 194527302.94006         0.000          38.700  
  37357311.805 6  37357312.688 7 194529359.30306         0.000          37.900  
  36637608.539 7  36637609.586 7 190781637.27707         0.000          42.200  
  38450499.102 6  38450503.250 6 200221865.98706         0.000          38.700  
  35725900.094 7  35725897.445 7 186034129.33307         0.000          45.400  
  35645116.445 7  35645116.816 7 185613468.54207         0.000          45.800  
  22395261.070 7  22395262.020 7 116618004.03207         0.000          46.500  
  23900942.109 6  23900944.199 7 124458471.02606         0.000          40.000  
  36662475.750 7  36662481.719 7 190911128.61707         0.000          45.600  
  24437733.328 6  24437743.449 7 127253670.60006         0.000          39.900  
  23353655.438 7         0.000   121608621.82107         0.000          45.500  
  24727914.016 7         0.000   128764732.78807         0.000          43.900  
  23995682.219 7         0.000   124951786.35107         0.000          44.900  
 22  6  2  5 37 40.0000000  0 13C01C02C03C04C07C10C11C12C13C14C21C23
                                C25
  37356217.617 6  37356221.691 7 194523651.04806         0.000          38.600  
  37356598.156 6  37356598.688 7 194525642.11406         0.000          37.700  
  36636887.805 7  36636888.508 7 190777882.03007         0.000          42.500  
  38449814.336 6  38449818.395 6 200218299.50506         0.000          38.700  
  35725394.992 7  35725392.465 7 186031499.52807         0.000          45.400  
  35644259.594 7  35644260.289 7 185609007.82507         0.000          45.800  
  22394220.203 7  22394221.102 7 116612583.65407         0.000          46.200  
  23901378.953 6  23901381.156 7 124460747.16506         0.000          39.900  
  36661694.617 7  36661700.555 7 190907061.19907         0.000          45.800  
  24434038.023 6  24434047.520 6 127234426.34706         0.000          39.700  
  23352977.289 7         0.000   121605090.64907         0.000          45.300  
  24727042.789 7         0.000   128760196.60007         0.000          43.300  
  23996976.211 7         0.000   124958522.47907         0.000          45.400  
 22  6  2  5 37 45.0000000  0 13C01C02C03C04C07C10C11C12C13C14C21C23
                                C25
  37355515.914 6  37355520.156 7 194519999.72406         0.000          38.700  
  37355884.594 6  37355885.109 7 194521925.37906         0.000          38.000  
  36636166.688 7  36636167.285 7 190774127.35407         0.000          42.600  
  38449129.031 6  38449133.605 6 200214733.63206         0.000          38.400  
  35724890.836 7  35724888.223 7 186028873.30507         0.000          45.200  
  35643403.766 7  35643404.316 7 185604550.40907         0.000          46.000  
  22393179.383 7  22393180.566 7 116607164.80807         0.000          46.000  
  23901816.813 6  23901818.688 7 124463025.05206         0.000          40.500  
  36660914.195 7  36660920.066 7 190902997.32807         0.000          45.500  
  24430343.594 6  24430352.445 6 127215184.07806         0.000          39.800  
  23352301.625 7         0.000   121601573.44307         0.000          45.100  
  24726174.445 7         0.000   128755673.24807         0.000          42.700  
  23998271.031 7         0.000   124965265.82507         0.000          44.900  
 22  6  2  5 37 50.0000000  0 13C01C02C03C04C07C10C11C12C13C14C21C23
                                C25
  37354815.523 6  37354819.230 6 194516349.42506         0.000          38.700  
  37355170.695 6  37355171.402 7 194518209.72606         0.000          37.600  
  36635445.375 7  36635446.523 7 190770373.73307         0.000          42.200  
  38448445.086 6  38448449.121 6 200211168.79606         0.000          38.400  
  35724387.469 7  35724384.574 7 186026251.19407         0.000          45.500  
  35642548.836 7  35642549.027 7 185600096.77707         0.000          45.300  
  22392138.813 7  22392140.141 7 116601747.93807         0.000          46.100  
  23902254.773 6  23902256.352 7 124465305.10506         0.000          40.600  
  36660134.375 7  36660140.438 7 190898937.47507         0.000          45.800  
  24426647.875 6  24426657.516 6 127195944.26006         0.000          40.100  
  23351629.250 7         0.000   121598070.71407         0.000          45.600  
  24725308.320 7         0.000   128751163.24507         0.000          43.200  
  23999567.586 7         0.000   124972016.85307         0.000          45.300  
 22  6  2  5 37 55.0000000  0 13C01C02C03C04C07C10C11C12C13C14C21C23
                                C25
  37354114.633 6  37354118.023 6 194512698.47106         0.000          38.900  
  37354457.547 6  37354457.734 7 194514493.31106         0.000          37.500  
  36634724.813 7  36634725.750 7 190766619.48507         0.000          42.500  
  38447760.063 6  38447764.023 6 200207603.30306         0.000          38.400  
  35723884.133 7  35723881.320 7 186023631.44007         0.000          45.900  
  35641693.680 7  35641694.035 7 185595645.28807         0.000          45.700  
  22391098.875 7  22391099.988 7 116596331.40107         0.000          46.000  
  23902693.180 6  23902694.434 7 124467585.63706         0.000          41.300  
  36659355.742 7  36659361.359 7 190894879.99607         0.000          45.700  
  24422953.547 6  24422963.043 7 127176705.14906         0.000          40.400  
  23350958.945 7         0.000   121594580.74407         0.000          46.400  
  24724444.367 7         0.000   128746664.87007         0.000          43.200  
  24000864.969 7         0.000   124978773.83607         0.000          44.900  
 22  6  2  5 38  0.0000000  0 13C01C02C03C04C07C10C11C12C13C14C21C23
                                C25
  37353413.164 6  37353417.203 6 194509048.17806         0.000          39.100  
  37353743.391 6  37353744.289 7 194510777.64106         0.000          37.800  
  36634004.070 7  36634004.715 7 190762865.93807         0.000          42.300  
  38447075.391 6  38447079.672 6 200204038.48806         0.000          38.600  
  35723381.789 7  35723378.949 7 186021015.42107         0.000          45.900  
  35640839.609 7  35640840.125 7 185591197.22707         0.000          45.600  
  22390059.055 7  22390060.289 7 116590916.49607         0.000          46.900  
  23903131.063 6  23903132.707 7 124469868.00806         0.000          41.600  
  36658577.117 7  36658582.840 7 190890826.19207         0.000          45.500  
  24419258.922 6  24419269.254 7 127157468.15206         0.000          40.600  
  23350291.398 7         0.000   121591104.89207         0.000          45.900  
  24723582.859 7         0.000   128742179.45407         0.000          43.600  
  24002163.922 7         0.000   124985538.14407         0.000          44.300  
 22  6  2  5 38  5.0000000  0 13C01C02C03C04C07C10C11C12C13C14C21C23
                                C25
  37352712.547 6  37352716.207 7 194505398.18706         0.000          39.000  
  37353030.352 6  37353030.512 7 194507062.12506         0.000          37.900  
  36633283.141 7  36633284.012 7 190759112.68307         0.000          42.400  
  38446391.000 6  38446395.086 6 200200473.95006         0.000          38.700  
  35722880.055 7  35722877.297 7 186018402.71607         0.000          45.800  
  35639985.844 7  35639986.238 7 185586752.16307         0.000          45.700  
  22389019.266 7  22389020.680 7 116585502.83307         0.000          46.600  
  23903570.055 6  23903571.320 7 124472151.84306         0.000          41.800  
  36657799.156 7  36657804.871 7 190886775.66707         0.000          46.000  
  24415565.211 6  24415575.223 7 127138232.89906         0.000          40.800  
  23349626.484 7         0.000   121587642.74607         0.000          45.900  
  24722724.078 7         0.000   128737706.60707         0.000          43.300  
  24003464.453 7         0.000   124992309.32107         0.000          45.000  
 22  6  2  5 38 10.0000000  0 13C01C02C03C04C07C10C11C12C13C14C21C23
                                C25
  37352011.664 6  37352015.383 6 194501749.33306         0.000          38.900  
  37352317.086 6  37352317.344 7 194503347.77106         0.000          37.600  
  36632562.195 7  36632563.379 7 190755360.61607         0.000          42.500  
  38445706.719 6  38445710.781 6 200196910.59606         0.000          38.700  
  35722379.070 7  35722376.199 7 186015794.19407         0.000          45.200  
  35639133.391 7  35639133.395 7 185582311.06107         0.000          45.800  
  22387980.148 7  22387981.551 7 116580091.30607         0.000          47.000  
  23904008.828 7  23904010.293 7 124474438.00307         0.000          42.000  
  36657021.922 7  36657027.641 7 190882729.25007         0.000          45.700  
  24411871.844 6  24411881.648 6 127119000.21806         0.000          40.800  
  23348964.492 7         0.000   121584195.16607         0.000          46.200  
  24721867.586 7         0.000   128733247.22907         0.000          43.600  
  24004766.063 7         0.000   124999088.25507         0.000          45.100  
 22  6  2  5 38 15.0000000  0 13C01C02C03C04C07C10C11C12C13C14C21C23
                                C25
  37351310.711 6  37351314.805 7 194498100.34406         0.000          38.900  
  37351603.914 6  37351604.086 7 194499633.25906         0.000          38.000  
  36631842.344 7  36631842.793 7 190751608.40507         0.000          42.500  
  38445022.289 6  38445026.535 6 200193347.07806         0.000          38.600  
  35721878.336 7  35721875.961 7 186013188.59007         0.000          45.000  
  35638280.789 7  35638281.176 7 185577872.57207         0.000          46.000  
  22386941.555 7  22386942.375 7 116574680.59807         0.000          47.000  
  23904448.078 6  23904449.816 7 124476725.15006         0.000          41.300  
  36656245.539 7  36656251.234 7 190878685.67707         0.000          45.800  
  24408178.344 6  24408188.434 6 127099768.84506         0.000          40.200  
  23348305.383 7         0.000   121580760.89307         0.000          46.400  
  24721012.750 7         0.000   128728799.97307         0.000          43.800  
  24006069.227 7         0.000   125005873.62607         0.000          45.100  
 22  6  2  5 38 20.0000000  0 13C01C02C03C04C07C10C11C12C13C14C21C23
                                C25
  37350610.203 6  37350614.504 6 194494452.21106         0.000          39.000  
  37350890.461 6  37350890.824 7 194495919.56306         0.000          37.800  
  36631121.586 7  36631122.395 7 190747857.10607         0.000          42.300  
  38444337.688 6  38444342.328 6 200189784.45506         0.000          38.600  
  35721379.266 7  35721376.242 7 186010586.93107         0.000          45.800  
  35637429.195 7  35637429.535 7 185573437.73507         0.000          45.700  
  22385902.758 7  22385903.434 7 116569271.75307         0.000          47.300  
  23904887.945 6  23904889.500 7 124479014.35706         0.000          41.100  
  36655469.703 7  36655475.785 7 190874646.03707         0.000          46.000  
  24404485.906 6  24404495.797 6 127080539.82806         0.000          40.900  
  23347648.305 7         0.000   121577340.93607         0.000          46.300  
  24720161.750 7         0.000   128724365.88107         0.000          43.800  
  24007374.070 7         0.000   125012666.47607         0.000          45.400  
 22  6  2  5 38 25.0000000  0 13C01C02C03C04C07C10C11C12C13C14C21C23
                                C25
  37349909.781 6  37349913.391 6 194490803.25806         0.000          39.100  
  37350177.438 6  37350177.539 7 194492205.07006         0.000          37.500  
  36630400.930 7  36630401.887 7 190744104.99607         0.000          42.400  
  38443653.625 6  38443658.164 6 200186221.01906         0.000          38.900  
  35720879.914 7  35720877.277 7 186007987.51107         0.000          45.800  
  35636577.664 7  35636578.414 7 185569004.85007         0.000          45.700  
  22384864.141 7  22384864.848 7 116563863.06807         0.000          47.600  
  23905327.219 6  23905329.328 7 124481303.91106         0.000          40.900  
  36654694.227 7  36654700.344 7 190870608.54307         0.000          45.600  
  24400793.422 6  24400802.980 6 127061311.47506         0.000          40.100  
  23346993.656 7         0.000   121573933.59207         0.000          45.800  
  24719312.250 7         0.000   128719943.22907         0.000          43.400  
  24008679.477 7         0.000   125019465.04907         0.000          44.900  
 22  6  2  5 38 30.0000000  0 13C01C02C03C04C07C10C11C12C13C14C21C23
                                C25
  37349209.211 6  37349212.848 7 194487155.10306         0.000          38.800  
  37349463.813 6  37349464.352 7 194488491.29906         0.000          37.600  
  36629680.828 7  36629681.578 7 190740353.70307         0.000          42.400  
  38442969.094 6  38442973.969 6 200182658.36506         0.000          38.700  
  35720381.648 7  35720378.762 7 186005391.95707         0.000          46.400  
  35635727.266 7  35635727.652 7 185564575.51507         0.000          46.200  
  22383825.961 7  22383826.359 7 116558456.11307         0.000          47.300  
  23905767.320 6  23905769.297 7 124483595.45906         0.000          41.200  
  36653919.836 7  36653925.645 7 190866574.85807         0.000          46.100  
  24397100.859 6  24397110.500 6 127042085.36106         0.000          40.400  
  23346342.367 7         0.000   121570540.46907         0.000          45.400  
  24718465.828 7         0.000   128715533.70007         0.000          42.400  
  24009986.578 7         0.000   125026270.99407         0.000          44.900  
 22  6  2  5 38 35.0000000  0 13C01C02C03C04C07C10C11C12C13C14C21C23
                                C25
  37348508.625 6  37348512.191 7 194483507.78506         0.000          38.900  
  37348750.852 6  37348751.195 7 194484778.38006         0.000          37.600  
  36628960.125 7  36628961.367 7 190736603.28307         0.000          42.400  
  38442285.984 6  38442289.844 6 200179096.60606         0.000          38.700  
  35719883.547 7  35719881.160 7 186002800.29307         0.000          46.800  
  35634877.578 7  35634877.824 7 185560149.85007         0.000          45.400  
  22382787.508 7  22382788.215 7 116553051.00107         0.000          47.800  
  23906207.906 6  23906209.754 7 124485889.02306         0.000          40.900  
  36653145.641 7  36653152.020 7 190862545.01607         0.000          45.700  
  24393408.664 6  24393418.379 6 127022861.64406         0.000          40.300  
  23345693.242 7         0.000   121567161.67307         0.000          45.300  
  24717621.273 7         0.000   128711137.29407         0.000          42.700  
  24011295.297 7         0.000   125033084.33407         0.000          45.000  
 22  6  2  5 38 40.0000000  0 13C01C02C03C04C07C10C11C12C13C14C21C23
                                C25
  37347808.164 6  37347811.883 6 194479859.97906         0.000          38.700  
  37348038.414 6  37348038.316 7 194481064.87806         0.000          38.100  
  36628240.031 7  36628241.113 7 190732852.36807         0.000          42.500  
  38441601.344 6  38441605.820 6 200175534.31006         0.000          38.300  
  35719386.367 7  35719383.660 7 186000211.18507         0.000          47.000  
  35634028.359 7  35634028.219 7 185555726.37107         0.000          45.900  
  22381749.852 7  22381750.484 7 116547646.33107         0.000          47.200  
  23906647.758 6  23906650.477 7 124488183.27606         0.000          40.500  
  36652373.016 7  36652378.387 7 190858517.64507         0.000          46.100  
  24389717.781 6  24389727.426 7 127003638.92506         0.000          40.400  
  23345046.906 7         0.000   121563795.75507         0.000          45.800  
  24716779.563 7         0.000   128706752.63207         0.000          42.200  
  24012604.656 7         0.000   125039903.71707         0.000          44.600  
 22  6  2  5 38 45.0000000  0 13C01C02C03C04C07C10C11C12C13C14C21C23
                                C25
  37347107.680 6  37347111.344 6 194476212.62706         0.000          39.000  
  37347325.070 6  37347325.289 7 194477351.92206         0.000          37.300  
  36627520.125 7  36627520.762 7 190729101.97707         0.000          42.400  
  38440917.156 6  38440921.766 6 200171972.53506         0.000          38.500  
  35718889.484 7  35718887.375 7 185997625.62207         0.000          46.000  
  35633179.289 7  35633179.793 7 185551306.17007         0.000          46.700  
  22380712.188 7  22380712.598 7 116542243.11307         0.000          47.300  
  23907089.328 6  23907091.438 7 124490479.13306         0.000          40.900  
  36651599.750 7  36651605.965 7 190854493.74307         0.000          46.100  
  24386027.141 6  24386035.941 6 126984418.21806         0.000          39.800  
  23344402.969 7         0.000   121560443.82107         0.000          45.300  
  24715940.219 7         0.000   128702380.73807         0.000          43.100  
  24013915.563 7         0.000   125046730.06507         0.000          45.000  
 22  6  2  5 38 50.0000000  0 13C01C02C03C04C07C10C11C12C13C14C21C23
                                C25
  37346407.797 6  37346411.355 6 194472566.23706         0.000          38.800  
  37346611.953 6  37346612.348 7 194473639.81706         0.000          37.800  
  36626799.641 7  36626800.691 7 190725352.52607         0.000          42.200  
  38440233.414 6  38440237.863 6 200168411.70006         0.000          38.600  
  35718394.094 7  35718391.430 7 185995044.01607         0.000          44.900  
  35632331.547 7  35632331.340 7 185546889.73607         0.000          46.500  
  22379675.016 7  22379675.523 7 116536841.85307         0.000          47.400  
  23907530.820 6  23907532.625 7 124492777.17206         0.000          40.800  
  36650827.688 7  36650833.660 7 190850473.78807         0.000          46.200  
  24382336.516 6  24382345.543 6 126965199.98606         0.000          40.000  
  23343761.961 7         0.000   121557106.24907         0.000          45.400  
  24715103.086 7         0.000   128698022.07107         0.000          43.200  
  24015228.133 7         0.000   125053563.83507         0.000          44.900  
 22  6  2  5 38 55.0000000  0 13C01C02C03C04C07C10C11C12C13C14C21C23
                                C25
  37345707.242 6  37345711.117 7 194468920.63306         0.000          39.000  
  37345899.258 6  37345899.707 7 194469928.47806         0.000          37.900  
  36626079.898 7  36626080.836 7 190721603.89807         0.000          42.400  
  38439550.367 6  38439554.406 6 200164851.63106         0.000          38.600  
  35717898.844 7  35717896.625 7 185992466.29907         0.000          44.600  
  35631483.852 7  35631483.918 7 185542476.84907         0.000          46.200  
  22378637.953 7  22378638.254 7 116531442.32307         0.000          47.400  
  23907972.656 6  23907974.566 7 124495077.15606         0.000          40.700  
  36650056.344 7  36650062.469 7 190846457.58307         0.000          45.500  
  24378645.891 6  24378655.598 7 126945984.06306         0.000          39.800  
  23343123.781 7         0.000   121553782.90707         0.000          45.900  
  24714268.188 7         0.000   128693676.46107         0.000          42.600  
  24016542.125 7         0.000   125060404.93307         0.000          45.600  
 22  6  2  5 39  0.0000000  0 13C01C02C03C04C07C10C11C12C13C14C21C23
                                C25
  37345007.203 6  37345011.102 6 194465274.84806         0.000          38.900  
  37345186.680 6  37345186.980 7 194466216.97906         0.000          37.900  
  36625360.117 7  36625361.070 7 190717855.15907         0.000          42.500  
  38438866.688 6  38438870.652 6 200161291.48106         0.000          38.400  
  35717404.516 7  35717401.965 7 185989891.47707         0.000          45.600  
  35630637.055 7  35630636.875 7 185538066.61607         0.000          46.000  
  22377601.117 7  22377601.496 7 116526043.65807         0.000          46.500  
  23908414.305 6  23908416.391 7 124497378.19806         0.000          40.000  
  36649285.555 7  36649291.887 7 190842444.19307         0.000          45.100  
  24374955.445 6  24374965.484 7 126926769.60206         0.000          39.500  
  23342488.047 7         0.000   121550472.88407         0.000          45.100  
  24713436.242 7         0.000   128689342.97807         0.000          42.800  
  24017856.781 7         0.000   125067252.36607         0.000          45.000  
 22  6  2  5 39  5.0000000  0 13C01C02C03C04C07C10C11C12C13C14C21C23
                                C25
  37344306.578 6  37344310.805 7 194461628.73206         0.000          38.600  
  37344474.242 6  37344474.215 7 194462505.06806         0.000          37.900  
  36624640.102 7  36624641.055 7 190714106.04007         0.000          42.300  
  38438182.328 6  38438187.055 6 200157730.90706         0.000          38.400  
  35716910.789 7  35716907.961 7 185987319.37807         0.000          45.900  
  35629790.570 7  35629790.496 7 185533658.81707         0.000          46.000  
  22376564.359 7  22376564.945 7 116520645.57407         0.000          47.200  
  23908856.273 6  23908858.277 7 124499680.03106         0.000          40.500  
  36648515.234 7  36648521.879 7 190838433.42507         0.000          45.400  
  24371266.242 6  24371275.957 7 126907556.29306         0.000          39.600  
  23341854.734 7         0.000   121547175.92907         0.000          45.100  
  24712606.633 7         0.000   128685021.38807         0.000          42.900  
  24019173.367 7         0.000   125074105.92407         0.000          44.700  
 22  6  2  5 39 10.0000000  0 13C01C02C03C04C07C10C11C12C13C14C21C23
                                C25
  37343606.977 6  37343610.574 7 194457983.41206         0.000          38.900  
  37343760.734 6  37343761.469 7 194458793.95506         0.000          37.900  
  36623920.352 7  36623921.266 7 190710357.79207         0.000          42.400  
  38437498.641 6  38437503.125 6 200154171.22506         0.000          38.400  
  35716417.531 7  35716414.648 7 185984751.15307         0.000          45.100  
  35628944.906 7  35628944.473 7 185529254.60607         0.000          46.300  
  22375527.945 7  22375528.879 7 116515249.27807         0.000          47.200  
  23909298.852 6  23909300.996 7 124501983.92706         0.000          40.500  
  36647745.844 7  36647752.266 7 190834426.50607         0.000          45.300  
  24367577.086 6  24367586.422 6 126888345.41406         0.000          39.600  
  23341224.266 7         0.000   121543893.26007         0.000          44.600  
  24711779.078 7         0.000   128680712.88107         0.000          43.000  
  24020491.180 7         0.000   125080966.77207         0.000          46.000  
 22  6  2  5 39 15.0000000  0 13C01C02C03C04C07C10C11C12C13C14C21C23
                                C25
  37342906.961 6  37342911.176 7 194454338.86606         0.000          38.800  
  37343048.523 6  37343048.809 7 194455083.53906         0.000          38.200  
  36623200.742 7  36623201.391 7 190706610.31207         0.000          42.300  
  38436815.977 6  38436819.898 6 200150612.29006         0.000          38.400  
  35715925.063 7  35715922.105 7 185982186.75007         0.000          45.600  
  35628099.648 7  35628099.395 7 185524853.95207         0.000          46.600  
  22374492.258 7  22374492.699 7 116509854.76107         0.000          46.900  
  23909741.602 6  23909743.449 7 124504289.74506         0.000          40.000  
  36646977.063 7  36646983.648 7 190830423.26007         0.000          45.400  
  24363887.852 6  24363897.605 7 126869136.90106         0.000          39.500  
  23340596.703 7         0.000   121540624.81107         0.000          44.500  
  24710954.383 7         0.000   128676417.40507         0.000          42.800  
  24021810.047 7         0.000   125087834.81807         0.000          45.700  
 22  6  2  5 39 20.0000000  0 14C01C02C03C04C05C07C10C11C12C13C14C21
                                C23C25
  37342207.445 6  37342210.980 6 194450695.59906         0.000          38.700  
  37342336.094 6  37342336.523 7 194451374.39606         0.000          38.000  
  36622481.148 7  36622481.980 7 190702864.14807         0.000          42.500  
  38436132.563 6  38436136.754 6 200147054.59106         0.000          38.600  
  39042398.805 5         0.000   203304050.26705         0.000          31.200  
  35715433.703 7  35715430.484 7 185979626.70607         0.000          46.000  
  35627255.227 7  35627255.082 7 185520457.38107         0.000          46.100  
  22373456.992 7  22373457.098 7 116504462.47107         0.000          47.000  
  23910184.867 6  23910187.035 7 124506598.04506         0.000          40.900  
  36646209.305 7  36646215.813 7 190826424.36907         0.000          45.700  
  24360199.602 6  24360209.508 7 126849931.23006         0.000          39.800  
  23339971.828 7         0.000   121537371.09807         0.000          44.300  
  24710131.758 7         0.000   128672135.46507         0.000          42.200  
  24023130.336 7         0.000   125094710.59507         0.000          45.200  
 22  6  2  5 39 25.0000000  0 14C01C02C03C04C05C07C10C11C12C13C14C21
                                C23C25
  37341507.719 6  37341511.660 7 194447052.31906         0.000          38.800  
  37341624.352 6  37341624.023 7 194447665.26606         0.000          37.800  
  36621762.266 7  36621762.719 7 190699117.97607         0.000          42.400  
  38435449.445 6  38435453.598 6 200143496.93806         0.000          38.300  
  39041681.211 5  39041686.316 4 203300315.37105         0.000          31.200  
  35714942.531 7  35714939.586 7 185977069.73107         0.000          46.200  
  35626411.609 7  35626411.422 7 185516063.57807         0.000          46.000  
  22372421.750 7  22372421.957 7 116499071.16507         0.000          46.800  
  23910628.930 6  23910630.602 7 124508907.54706         0.000          41.400  
  36645442.328 7  36645448.270 7 190822428.38307         0.000          47.500  
  24356512.195 6  24356521.422 7 126830727.18206         0.000          39.800  
  23339349.531 7         0.000   121534130.82707         0.000          44.700  
  24709311.492 7         0.000   128667865.77807         0.000          42.700  
  24024452.234 7         0.000   125101592.79607         0.000          45.100  
 22  6  2  5 39 30.0000000  0 13C01C02C03C04C07C10C11C12C13C14C21C23
                                C25
  37340808.281 6  37340812.188 7 194443410.15406         0.000          39.000  
  37340911.953 6  37340912.242 7 194443957.21206         0.000          38.100  
  36621042.898 7  36621043.707 7 190695372.96607         0.000          42.400  
  38434766.359 6  38434770.398 6 200139940.43706         0.000          38.200  
  35714452.328 7  35714449.453 7 185974516.91107         0.000          46.300  
  35625568.258 7  35625568.410 7 185511673.69807         0.000          45.900  
  22371386.383 7  22371386.949 7 116493681.96407         0.000          47.100  
  23911072.914 6  23911074.660 7 124511219.40006         0.000          41.400  
  36644675.594 7  36644681.555 7 190818436.53107         0.000          46.900  
  24352825.203 6  24352833.965 6 126811525.89306         0.000          39.900  
  23338730.281 7         0.000   121530905.13707         0.000          44.300  
  24708493.992 7         0.000   128663609.48707         0.000          42.000  
  24025775.508 7         0.000   125108482.55307         0.000          45.500  
 22  6  2  5 39 35.0000000  0 13C01C02C03C04C07C10C11C12C13C14C21C23
                                C25
  37340108.945 6  37340112.734 7 194439768.10306         0.000          39.000  
  37340199.836 6  37340199.965 7 194440249.19006         0.000          37.900  
  36620323.563 7  36620324.320 7 190691628.07607         0.000          42.500  
  38434083.391 6  38434087.398 6 200136383.99706         0.000          38.400  
  35713962.844 7  35713959.785 7 185971967.28707         0.000          46.600  
  35624725.977 7  35624725.762 7 185507286.73007         0.000          46.000  
  22370351.719 7  22370352.320 7 116488293.84607         0.000          47.800  
  23911518.016 6  23911518.875 7 124513532.55406         0.000          41.700  
  36643909.641 7  36643915.906 7 190814447.72207         0.000          46.600  
  24349137.672 6  24349147.078 7 126792326.33606         0.000          39.700  
  23338113.141 7         0.000   121527692.99807         0.000          44.600  
  24707679.016 7         0.000   128659365.54007         0.000          43.000  
  24027100.031 7         0.000   125115378.82107         0.000          45.200  
 22  6  2  5 39 40.0000000  0 14C01C02C03C04C05C07C10C11C12C13C14C21
                                C23C25
  37339409.781 6  37339413.484 7 194436126.24006         0.000          39.100  
  37339487.664 6  37339487.777 7 194436541.36606         0.000          37.900  
  36619604.594 7  36619604.996 7 190687883.45707         0.000          42.500  
  38433400.414 6  38433404.527 6 200132827.78906         0.000          38.400  
  39039529.172 5         0.000   203289106.97905         0.000          31.800  
  35713473.836 7  35713470.840 7 185969420.91507         0.000          46.800  
  35623884.055 7  35623883.945 7 185502902.81107         0.000          46.600  
  22369317.461 8  22369317.609 7 116482906.93408         0.000          48.100  
  23911962.977 7  23911963.301 7 124515847.11907         0.000          42.100  
  36643144.031 7  36643150.477 7 190810462.11307         0.000          46.200  
  24345450.750 6  24345460.363 7 126773128.64006         0.000          39.200  
  23337499.086 7         0.000   121524494.57707         0.000          44.800  
  24706866.297 7         0.000   128655134.08007         0.000          42.300  
  24028425.031 7         0.000   125122281.72607         0.000          45.800  
 22  6  2  5 39 45.0000000  0 14C01C02C03C04C05C07C10C11C12C13C14C21
                                C23C25
  37338710.391 6  37338714.051 7 194432484.53806         0.000          38.900  
  37338775.453 6  37338776.063 7 194432833.64606         0.000          37.800  
  36618885.398 7  36618886.152 7 190684138.96607         0.000          42.600  
  38432717.328 6  38432721.699 6 200129271.72106         0.000          38.400  
  39038812.445 5         0.000   203285366.44505         0.000          31.500  
  35712985.164 7  35712982.457 7 185966877.77207         0.000          46.400  
  35623042.828 7  35623042.602 7 185498521.76007         0.000          46.100  
  22368283.258 7  22368283.406 7 116477521.10107         0.000          47.400  
  23912406.242 7  23912407.801 7 124518163.07007         0.000          42.000  
  36642379.813 7  36642385.543 7 190806479.59207         0.000          46.400  
  24341764.258 6  24341774.063 7 126753932.77806         0.000          39.300  
  23336887.539 7         0.000   121521309.71607         0.000          44.500  
  24706056.188 7         0.000   128650914.98007         0.000          42.200  
  24029752.219 7         0.000   125129191.11507         0.000          45.000  
 22  6  2  5 39 50.0000000  0 13C01C02C03C04C07C10C11C12C13C14C21C23
                                C25
  37338010.867 6  37338014.613 7 194428842.39406         0.000          38.700  
  37338064.039 6  37338064.035 7 194429125.52806         0.000          38.100  
  36618166.195 7  36618167.074 7 190680394.10207         0.000          42.300  
  38432034.578 6  38432038.832 6 200125715.27406         0.000          38.400  
  35712497.766 7  35712494.613 7 185964337.31307         0.000          46.900  
  35622201.773 7  35622201.586 7 185494143.14507         0.000          45.800  
  22367249.164 7  22367249.254 7 116472135.90507         0.000          47.100  
  23912851.609 6  23912852.828 7 124520479.78506         0.000          41.800  
  36641614.930 7  36641621.172 7 190802499.62207         0.000          46.900  
  24338078.680 6  24338088.223 7 126734738.16306         0.000          38.900  
  23336278.094 7         0.000   121518137.92307         0.000          44.900  
  24705248.094 7         0.000   128646707.77007         0.000          42.600  
  24031080.172 7         0.000   125136106.51307         0.000          45.300  
 22  6  2  5 39 55.0000000  0 13C01C02C03C04C07C10C11C12C13C14C21C23
                                C25
  37337311.414 6  37337315.734 6 194425201.93806         0.000          39.100  
  37337352.336 6  37337352.254 7 194425419.00206         0.000          38.100  
  36617447.273 7  36617448.129 7 190676650.89207         0.000          42.500  
  38431351.352 6  38431356.109 6 200122160.44406         0.000          38.500  
  35712010.672 7  35712007.453 7 185961801.57507         0.000          45.900  
  35621361.898 7  35621361.477 7 185489768.95907         0.000          46.200  
  22366215.422 8  22366215.590 7 116466753.29108         0.000          48.000  
  23913297.383 6  23913298.527 7 124522799.36706         0.000          41.500  
  36640851.203 7  36640857.914 7 190798524.25307         0.000          46.300  
  24334392.266 6  24334402.883 7 126715546.84506         0.000          39.600  
  23335672.063 7         0.000   121514981.21007         0.000          45.500  
  24704442.734 7         0.000   128642514.40907         0.000          42.300  
  24032409.578 7         0.000   125143029.88207         0.000          45.400  
 22  6  2  5 40  0.0000000  0 13C01C02C03C04C07C10C11C12C13C14C21C23
                                C25
  37336612.625 6  37336616.594 7 194421561.95206         0.000          38.600  
  37336640.313 6  37336640.461 7 194421712.93106         0.000          38.100  
  36616728.617 7  36616729.273 7 190672908.16507         0.000          42.400  
  38430669.297 6  38430673.613 6 200118606.11906         0.000          38.600  
  35711524.430 7  35711521.379 7 185959269.41907         0.000          46.400  
  35620522.539 7  35620522.176 7 185485398.07007         0.000          46.200  
  22365182.289 7  22365182.344 7 116461372.16507         0.000          47.900  
  23913742.375 7  23913744.172 7 124525120.65707         0.000          42.000  
  36640088.391 7  36640095.219 7 190794552.31607         0.000          46.400  
  24330706.852 6  24330717.875 7 126696357.70706         0.000          39.400  
  23335068.805 7         0.000   121511838.46307         0.000          45.700  
  24703639.578 7         0.000   128638333.78707         0.000          42.100  
  24033740.430 7         0.000   125149960.10807         0.000          44.600  
 22  6  2  5 40  5.0000000  0 13C01C02C03C04C07C10C11C12C13C14C21C23
                                C25
  37335914.094 6  37335917.574 7 194417922.52606         0.000          38.800  
  37335928.250 6  37335928.863 7 194418007.39606         0.000          37.900  
  36616009.867 7  36616010.754 7 190669166.03607         0.000          42.500  
  38429986.805 6  38429991.121 6 200115052.35406         0.000          38.600  
  35711038.695 7  35711035.879 7 185956740.90907         0.000          46.100  
  35619683.391 7  35619683.457 7 185481030.54107         0.000          45.600  
  22364149.016 7  22364149.180 7 116455992.59407         0.000          47.500  
  23914188.695 6  23914190.574 7 124527443.76406         0.000          40.700  
  36639326.617 7  36639333.090 7 190790583.92007         0.000          46.500  
  24327022.719 6  24327033.656 7 126677170.83906         0.000          39.200  
  23334467.695 7         0.000   121508709.74607         0.000          44.900  
  24702839.320 6         0.000   128634165.97706         0.000          41.800  
  24035072.664 7         0.000   125156897.23407         0.000          44.900  
 22  6  2  5 40 10.0000000  0 13C01C02C03C04C07C10C11C12C13C14C21C23
                                C25
  37335215.102 6  37335218.922 7 194414283.84306         0.000          38.800  
  37335217.055 6  37335217.359 7 194414302.58606         0.000          37.800  
  36615291.492 7  36615292.332 7 190665424.72207         0.000          42.600  
  38429304.289 6  38429308.605 6 200111499.39506         0.000          38.600  
  35710554.008 7  35710551.070 7 185954216.23307         0.000          46.600  
  35618845.523 7  35618845.570 7 185476666.60407         0.000          46.300  
  22363115.961 7  22363116.559 7 116450614.76307         0.000          47.300  
  23914635.141 6  23914637.234 7 124529768.86106         0.000          41.200  
  36638565.055 7  36638571.734 7 190786619.22807         0.000          45.600  
  24323338.945 6  24323349.574 7 126657986.45406         0.000          39.600  
  23333869.883 7         0.000   121505595.28107         0.000          45.200  
  24702041.203 6         0.000   128630011.19006         0.000          41.400  
  24036406.711 7         0.000   125163841.48107         0.000          44.500  
 22  6  2  5 40 15.0000000  0 13C01C02C03C04C07C10C11C12C13C14C21C23
                                C25
  37334516.289 6  37334520.125 6 194410644.90806         0.000          39.000  
  37334505.352 6  37334505.914 7 194410597.49406         0.000          37.900  
  36614573.359 7  36614573.855 7 190661683.14607         0.000          42.500  
  38428622.078 6  38428626.445 6 200107946.16606         0.000          38.500  
  35710069.250 7  35710066.594 7 185951694.32507         0.000          46.400  
  35618007.570 7  35618007.727 7 185472305.18807         0.000          46.000  
  22362083.164 7  22362083.941 7 116445237.63007         0.000          47.300  
  23915081.578 6  23915083.922 7 124532094.88906         0.000          41.300  
  36637804.297 7  36637810.742 7 190782657.21007         0.000          45.600  
  24319655.102 6  24319665.668 7 126638803.51706         0.000          39.900  
  23333274.945 7         0.000   121502494.01907         0.000          45.200  
  24701245.758 6         0.000   128625868.35506         0.000          41.800  
  24037741.266 7         0.000   125170791.75907         0.000          44.300  
 22  6  2  5 40 20.0000000  0 13C01C02C03C04C07C10C11C12C13C14C21C23
                                C25
  37333817.523 6  37333821.227 7 194407006.14206         0.000          38.900  
  37333794.148 6  37333794.297 7 194406892.57006         0.000          38.100  
  36613854.211 7  36613855.402 7 190657941.76807         0.000          42.200  
  38427939.422 6  38427944.215 6 200104393.08606         0.000          38.100  
  35709585.734 7  35709582.945 7 185949175.69507         0.000          46.500  
  35617170.469 7  35617171.035 7 185467946.73407         0.000          45.600  
  22361051.281 7  22361051.555 7 116439861.69307         0.000          47.800  
  23915528.039 6  23915530.867 7 124534422.36606         0.000          40.600  
  36637044.055 7  36637050.480 7 190778698.34807         0.000          45.600  
  24315971.469 6  24315982.043 7 126619622.55406         0.000          39.000  
  23332681.625 7         0.000   121499406.39807         0.000          44.700  
  24700452.734 6         0.000   128621737.92206         0.000          41.400  
  24039077.516 7         0.000   125177748.53007         0.000          44.300  
 22  6  2  5 40 25.0000000  0 13C01C02C03C04C07C10C11C12C13C14C21C23
                                C25
  37333119.078 6  37333122.445 7 194403367.05206         0.000          38.900  
  37333082.625 6  37333082.789 7 194403187.26406         0.000          38.100  
  36613135.680 7  36613136.664 7 190654200.06207         0.000          42.200  
  38427257.219 6  38427261.875 6 200100839.70806         0.000          37.900  
  35709102.680 7  35709100.160 7 185946659.80407         0.000          45.900  
  35616333.922 7  35616334.402 7 185463590.82107         0.000          45.000  
  22360019.008 7  22360019.152 7 116434486.36807         0.000          47.300  
  23915975.961 6  23915977.836 7 124536750.68206         0.000          41.000  
  36636284.094 7  36636290.852 7 190774742.07707         0.000          46.200  
  24312287.195 6  24312298.898 7 126600442.95506         0.000          39.100  
  23332091.219 7         0.000   121496331.92607         0.000          44.500  
  24699662.188 6         0.000   128617619.39106         0.000          41.300  
  24040414.398 7         0.000   125184711.27007         0.000          44.100  
 22  6  2  5 40 30.0000000  0 13C01C02C03C04C07C10C11C12C13C14C21C23
                                C25
  37332420.008 6  37332423.477 7 194399728.32806         0.000          38.900  
  37332371.117 6  37332371.535 7 194399482.27006         0.000          38.100  
  36612417.242 7  36612418.258 7 190650458.71707         0.000          42.200  
  38426574.844 6  38426579.355 6 200097286.68206         0.000          38.200  
  35708620.039 7  35708617.508 7 185944147.36907         0.000          45.300  
  35615498.313 7  35615498.488 7 185459238.04507         0.000          44.900  
  22358987.359 8  22358987.078 7 116429112.43008         0.000          48.100  
  23916423.578 6  23916425.086 7 124539080.60506         0.000          41.200  
  36635525.234 7  36635531.445 7 190770789.20707         0.000          46.100  
  24308605.383 6  24308615.879 7 126581265.50206         0.000          39.400  
  23331503.398 7         0.000   121493271.26907         0.000          44.300  
  24698873.484 6         0.000   128613513.42306         0.000          41.800  
  24041753.023 7         0.000   125191680.62407         0.000          43.800  
 22  6  2  5 40 35.0000000  0 14C01C02C03C04C05C07C10C11C12C13C14C21
                                C23C25
  37331721.164 6  37331724.867 7 194396090.64006         0.000          38.500  
  37331659.641 6  37331660.195 7 194395778.33206         0.000          37.900  
  36611699.250 7  36611700.164 7 190646718.52107         0.000          42.100  
  38425892.875 6  38425897.145 6 200093734.69606         0.000          38.200  
  39031644.609 5         0.000   203248052.91205         0.000          31.000  
  35708138.000 7  35708135.922 7 185941639.05807         0.000          45.700  
  35614663.188 7  35614663.492 7 185454889.16207         0.000          45.600  
  22357955.102 7  22357955.559 7 116423740.55907         0.000          47.500  
  23916871.219 6  23916873.051 7 124541412.85206         0.000          41.100  
  36634766.922 7  36634773.469 7 190766840.25807         0.000          46.100  
  24304923.961 6  24304933.355 7 126562090.90606         0.000          39.400  
  23330918.805 7         0.000   121490225.17807         0.000          44.300  
  24698087.273 7         0.000   128609420.77407         0.000          42.900  
  24043092.555 7         0.000   125198657.35907         0.000          43.800  
 22  6  2  5 40 40.0000000  0 13C01C02C03C04C07C10C11C12C13C14C21C23
                                C25
  37331022.055 6  37331026.238 6 194392453.59706         0.000          38.500  
  37330948.805 6  37330948.992 7 194392074.98906         0.000          37.900  
  36610980.781 7  36610981.891 7 190642978.93407         0.000          42.300  
  38425210.891 6  38425215.273 6 200090183.38406         0.000          38.600  
  35707657.289 7  35707654.832 7 185939134.48307         0.000          45.800  
  35613828.813 7  35613829.109 7 185450543.71707         0.000          45.200  
  22356923.883 7  22356924.191 7 116418370.27807         0.000          47.200  
  23917319.359 6  23917321.379 7 124543747.00806         0.000          40.400  
  36634009.078 7  36634015.547 7 190762894.89607         0.000          45.800  
  24301241.305 6  24301251.164 7 126542918.65206         0.000          39.200  
  23330335.859 7         0.000   121487193.16707         0.000          43.900  
  24697303.648 7         0.000   128605340.99007         0.000          42.900  
  24044433.469 7         0.000   125205640.97107         0.000          44.100  
 22  6  2  5 40 45.0000000  0 14C01C02C03C04C05C07C10C11C12C13C14C21
                                C23C25
  37330323.672 6  37330328.117 7 194388816.79806         0.000          37.700  
  37330237.867 6  37330237.895 7 194388371.91006         0.000          37.800  
  36610262.148 6  36610263.973 7 190639239.64606         0.000          41.700  
  38424528.617 6  38424533.563 6 200086632.33706         0.000          38.000  
  39030213.188 5  39030216.750 4 203240599.27305         0.000          31.900  
  35707176.891 7  35707174.563 7 185936633.27207         0.000          45.400  
  35612994.750 7  35612995.152 7 185446201.36307         0.000          45.400  
  22355892.844 7  22355892.797 7 116413001.30107         0.000          46.700  
  23917768.477 6  23917769.816 7 124546082.62106         0.000          41.200  
  36633252.016 7  36633258.359 7 190758952.69907         0.000          46.000  
  24297560.539 6  24297570.008 6 126523748.47706         0.000          37.900  
  23329756.203 7         0.000   121484174.91907         0.000          45.200  
  24696522.828 7         0.000   128601273.67207         0.000          42.700  
  24045776.000 6         0.000   125212631.12006         0.000          41.800  
 22  6  2  5 40 50.0000000  0 13C01C02C03C04C07C10C11C12C13C14C21C23
                                C25
  37329626.195 6  37329629.801 6 194385180.23506         0.000          38.400  
  37329526.516 6  37329527.082 7 194384669.03806         0.000          38.300  
  36609544.625 7  36609545.801 7 190635500.60607         0.000          42.100  
  38423847.078 6  38423851.559 6 200083081.51506         0.000          38.400  
  35706697.172 7  35706695.008 7 185934135.34807         0.000          46.000  
  35612161.758 7  35612161.871 7 185441862.07607         0.000          45.400  
  22354861.547 7  22354862.500 7 116407633.46607         0.000          47.000  
  23918216.617 6  23918219.055 7 124548419.72906         0.000          41.100  
  36632495.398 7  36632502.051 7 190755013.77007         0.000          46.000  
  24293879.508 6  24293889.051 7 126504580.41306         0.000          40.100  
  23329179.063 7         0.000   121481170.37907         0.000          45.300  
  24695743.789 7         0.000   128597218.81107         0.000          42.300  
  24047120.070 7         0.000   125219627.73007         0.000          44.300  
 22  6  2  5 40 55.0000000  0 14C01C02C03C04C05C07C10C11C12C13C14C21
                                C23C25
  37328927.820 6  37328931.750 7 194381544.84806         0.000          39.100  
  37328815.063 6  37328815.773 7 194380967.27406         0.000          38.000  
  36608827.008 7  36608827.961 7 190631762.73707         0.000          42.200  
  38423164.828 6  38423169.598 6 200079531.89306         0.000          38.400  
  39028780.453 5         0.000   203233154.02905         0.000          32.000  
  35706218.219 7  35706216.094 7 185931641.71507         0.000          46.000  
  35611329.133 7  35611329.359 7 185437526.82007         0.000          45.800  
  22353831.398 7  22353831.359 7 116402267.82207         0.000          46.900  
  23918666.508 6  23918668.219 7 124550759.25306         0.000          41.300  
  36631740.047 7  36631746.387 7 190751078.89507         0.000          45.400  
  24290198.938 6  24290208.023 7 126485415.32706         0.000          40.000  
  23328605.008 7         0.000   121478180.48507         0.000          45.000  
  24694967.719 7         0.000   128593177.35307         0.000          42.800  
  24048464.594 7         0.000   125226631.75307         0.000          43.800  
 22  6  2  5 41  0.0000000  0 14C01C02C03C04C05C07C10C11C12C13C14C21
                                C23C25
  37328229.344 6  37328233.422 6 194377908.21306         0.000          39.000  
  37328104.133 6  37328104.535 7 194377264.25506         0.000          37.200  
  36608108.977 7  36608109.871 7 190628023.67307         0.000          42.300  
  38422483.391 6  38422487.668 6 200075981.04006         0.000          38.600  
  39028064.477 5         0.000   203229424.78605         0.000          31.600  
  35705739.711 7  35705737.578 7 185929149.90307         0.000          45.800  
  35610496.688 7  35610496.852 7 185433193.14407         0.000          46.300  
  22352800.625 7  22352801.168 7 116396901.95907         0.000          47.000  
  23919115.648 6  23919117.344 7 124553098.78906         0.000          40.500  
  36630984.719 7  36630990.988 7 190747145.71607         0.000          46.500  
  24286517.820 6  24286527.750 7 126466250.79606         0.000          39.800  
  23328033.055 7         0.000   121475202.81407         0.000          44.700  
  24694193.789 7         0.000   128589146.88507         0.000          42.600  
  24049810.875 7         0.000   125233640.73007         0.000          43.100  
 22  6  2  5 41  5.0000000  0 14C01C02C03C04C05C07C10C11C12C13C14C21
                                C23C25
  37327531.547 6  37327534.953 7 194374271.97806         0.000          38.900  
  37327393.023 6  37327393.676 7 194373561.61406         0.000          37.400  
  36607390.875 7  36607392.059 7 190624285.05107         0.000          42.200  
  38421801.969 6  38421805.840 6 200072430.56806         0.000          38.800  
  39027348.461 5         0.000   203225696.90205         0.000          32.500  
  35705262.016 7  35705259.563 7 185926661.60407         0.000          45.600  
  35609665.367 7  35609665.598 7 185428862.65907         0.000          45.500  
  22351770.242 7  22351771.035 7 116391537.47507         0.000          46.300  
  23919565.734 6  23919567.090 7 124555439.98206         0.000          41.300  
  36630230.008 7  36630236.266 7 190743215.89607         0.000          46.000  
  24282838.281 6  24282847.977 7 126447088.48706         0.000          40.000  
  23327464.094 7         0.000   121472239.02507         0.000          44.600  
  24693421.922 7         0.000   128585129.00007         0.000          42.500  
  24051157.992 7         0.000   125240656.31607         0.000          43.800  
 22  6  2  5 41 10.0000000  0 13C01C02C03C04C07C10C11C12C13C14C21C23
                                C25
  37326832.867 6  37326837.043 6 194370636.72906         0.000          38.900  
  37326681.742 6  37326682.512 7 194369859.94406         0.000          37.400  
  36606673.328 7  36606674.242 7 190620547.40707         0.000          42.100  
  38421120.398 6  38421124.273 6 200068881.10306         0.000          38.900  
  35704784.813 7  35704782.590 7 185924177.36607         0.000          46.300  
  35608834.102 7  35608834.578 7 185424535.99707         0.000          46.600  
  22350740.898 7  22350741.145 7 116386174.97707         0.000          46.600  
  23920015.664 6  23920017.402 7 124557783.43706         0.000          41.600  
  36629476.133 7  36629482.574 7 190739289.95707         0.000          46.200  
  24279158.820 6  24279168.621 7 126427929.07306         0.000          39.400  
  23326897.523 7         0.000   121469289.72607         0.000          44.600  
  24692652.719 7         0.000   128581124.33107         0.000          42.300  
  24052506.828 7         0.000   125247679.13707         0.000          43.600  
 22  6  2  5 41 15.0000000  0 13C01C02C03C04C07C10C11C12C13C14C21C23
                                C25
  37326134.648 6  37326138.609 7 194367001.29106         0.000          38.900  
  37325970.961 6  37325971.719 7 194366158.02806         0.000          37.200  
  36605955.289 7  36605956.496 7 190616809.60507         0.000          42.100  
  38420438.773 6  38420442.766 6 200065331.48606         0.000          38.600  
  35704308.297 7  35704306.031 7 185921696.04607         0.000          45.800  
  35608004.117 7  35608004.418 7 185420211.96507         0.000          46.000  
  22349711.594 7  22349711.535 7 116380813.29907         0.000          47.400  
  23920465.898 7  23920467.336 7 124560127.92807         0.000          42.500  
  36628722.648 7  36628729.152 7 190735366.80407         0.000          45.700  
  24275479.797 6  24275489.547 7 126408771.28006         0.000          39.900  
  23326333.547 7         0.000   121466353.72507         0.000          43.900  
  24691886.047 6         0.000   128577131.68006         0.000          41.100  
  24053857.133 7         0.000   125254707.90707         0.000          44.300  
 22  6  2  5 41 20.0000000  0 14C01C02C03C04C05C07C10C11C12C13C14C21
                                C23C25
  37325437.156 6  37325440.566 6 194363366.29606         0.000          38.900  
  37325260.289 6  37325260.922 7 194362456.53006         0.000          37.500  
  36605237.633 7  36605238.668 7 190613072.29407         0.000          42.200  
  38419756.797 6  38419760.898 6 200061782.28206         0.000          38.700  
  39025200.734 5         0.000   203214510.15905         0.000          31.200  
  35703832.625 7  35703830.270 7 185919218.26707         0.000          45.600  
  35607174.227 7  35607174.625 7 185415891.22607         0.000          46.100  
  22348681.828 7  22348682.063 7 116375453.06007         0.000          47.600  
  23920916.406 7  23920917.781 7 124562474.18107         0.000          42.600  
  36627969.617 7  36627976.254 7 190731447.02007         0.000          46.100  
  24271800.664 6  24271810.832 7 126389615.84106         0.000          39.100  
  23325772.938 7         0.000   121463431.65307         0.000          44.500  
  24691122.070 7         0.000   128573151.67407         0.000          42.400  
  24055207.813 7         0.000   125261743.31807         0.000          44.300  
 22  6  2  5 41 25.0000000  0 14C01C02C03C04C05C07C10C11C12C13C14C21
                                C23C25
  37324738.891 6  37324742.863 7 194359732.37306         0.000          39.000  
  37324549.430 6  37324550.246 7 194358756.07306         0.000          37.100  
  36604520.445 7  36604521.258 7 190609336.04507         0.000          42.200  
  38419075.047 6  38419079.668 6 200058234.12806         0.000          38.800  
  39024483.906 5  39024488.633 5 203210784.45905         0.000          30.500  
  35703357.313 7  35703355.145 7 185916744.62707         0.000          46.000  
  35606344.703 7  35606345.652 7 185411574.36107         0.000          45.600  
  22347653.055 7  22347653.242 7 116370094.87607         0.000          46.900  
  23921367.867 7  23921368.836 7 124564822.71707         0.000          42.400  
  36627217.578 7  36627224.375 7 190727531.29807         0.000          45.500  
  24268122.875 6  24268132.766 7 126370463.29306         0.000          38.800  
  23325214.398 7         0.000   121460524.12907         0.000          44.300  
  24690360.281 7         0.000   128569184.94507         0.000          43.000  
  24056560.656 7         0.000   125268785.94107         0.000          44.900  
 22  6  2  5 41 30.0000000  0 13C01C02C03C04C07C10C11C12C13C14C21C23
                                C25
  37324041.148 6  37324045.113 6 194356098.29006         0.000          38.900  
  37323839.203 6  37323839.578 7 194355055.48706         0.000          37.700  
  36603802.430 7  36603803.730 7 190605599.69007         0.000          42.100  
  38418394.414 6  38418398.148 6 200054685.88306         0.000          38.800  
  35702882.734 7  35702880.480 7 185914273.97907         0.000          46.300  
  35605516.875 7  35605517.063 7 185407260.18307         0.000          45.400  
  22346623.984 7  22346624.453 7 116364737.55207         0.000          47.500  
  23921818.484 7  23921820.141 7 124567172.39607         0.000          42.400  
  36626466.328 7  36626472.895 7 190723618.37807         0.000          46.000  
  24264445.570 6  24264455.008 7 126351312.56606         0.000          39.000  
  23324658.828 7         0.000   121457629.96307         0.000          44.900  
  24689600.742 7         0.000   128565230.30207         0.000          43.000  
  24057914.102 7         0.000   125275834.57107         0.000          44.100  
 22  6  2  5 41 35.0000000  0 13C01C02C03C04C07C10C11C12C13C14C21C23
                                C25
  37323343.578 6  37323347.035 6 194352464.06606         0.000          39.000  
  37323128.359 6  37323128.906 7 194351354.65406         0.000          37.400  
  36603084.836 7  36603086.102 7 190601863.17607         0.000          42.100  
  38417712.844 6  38417716.672 6 200051137.49006         0.000          38.800  
  35702409.109 7  35702406.762 7 185911806.26707         0.000          45.900  
  35604688.734 7  35604689.051 7 185402948.72407         0.000          45.100  
  22345595.563 7  22345595.715 7 116359381.04607         0.000          47.500  
  23922270.391 6  23922271.719 7 124569523.18906         0.000          41.800  
  36625715.539 7  36625722.012 7 190719708.05807         0.000          45.300  
  24260767.859 6  24260777.719 7 126332163.59306         0.000          39.600  
  23324105.508 7         0.000   121454749.12707         0.000          45.600  
  24688843.406 7         0.000   128561287.67407         0.000          43.400  
  24059268.891 7         0.000   125282889.20207         0.000          44.700  
